[{"airport":"Goroka Airport","3":"Goroka","country":"Papua New Guinea","latitude":-6.0816898346,"longitude":145.391998291,"coords":{"type":"Point","coordinates":[145.391998291,-6.0816898346]}},{"airport":"Madang Airport","3":"Madang","country":"Papua New Guinea","latitude":-5.2070798874,"longitude":145.789001465,"coords":{"type":"Point","coordinates":[145.789001465,-5.2070798874]}},{"airport":"Mount Hagen Kagamuga Airport","3":"Mount Hagen","country":"Papua New Guinea","latitude":-5.826789856,"longitude":144.296005249,"coords":{"type":"Point","coordinates":[144.296005249,-5.826789856]}},{"airport":"Nadzab Airport","3":"Nadzab","country":"Papua New Guinea","latitude":-6.569803,"longitude":146.725977,"coords":{"type":"Point","coordinates":[146.725977,-6.569803]}},{"airport":"Port Moresby Jacksons International Airport","3":"Port Moresby","country":"Papua New Guinea","latitude":-9.4433803558,"longitude":147.2200012207,"coords":{"type":"Point","coordinates":[147.2200012207,-9.4433803558]}},{"airport":"Wewak International Airport","3":"Wewak","country":"Papua New Guinea","latitude":-3.5838301182,"longitude":143.669006348,"coords":{"type":"Point","coordinates":[143.669006348,-3.5838301182]}},{"airport":"Narsarsuaq Airport","3":"Narssarssuaq","country":"Greenland","latitude":61.1604995728,"longitude":-45.4259986877,"coords":{"type":"Point","coordinates":[-45.4259986877,61.1604995728]}},{"airport":"Godthaab \/ Nuuk Airport","3":"Godthaab","country":"Greenland","latitude":64.19090271,"longitude":-51.6781005859,"coords":{"type":"Point","coordinates":[-51.6781005859,64.19090271]}},{"airport":"Kangerlussuaq Airport","3":"Sondrestrom","country":"Greenland","latitude":67.0122218992,"longitude":-50.7116031647,"coords":{"type":"Point","coordinates":[-50.7116031647,67.0122218992]}},{"airport":"Thule Air Base","3":"Thule","country":"Greenland","latitude":76.5311965942,"longitude":-68.7032012939,"coords":{"type":"Point","coordinates":[-68.7032012939,76.5311965942]}},{"airport":"Akureyri Airport","3":"Akureyri","country":"Iceland","latitude":65.6600036621,"longitude":-18.0727005005,"coords":{"type":"Point","coordinates":[-18.0727005005,65.6600036621]}},{"airport":"Egilssta\u00f0ir Airport","3":"Egilsstadir","country":"Iceland","latitude":65.2833023071,"longitude":-14.4013996124,"coords":{"type":"Point","coordinates":[-14.4013996124,65.2833023071]}},{"airport":"Hornafj\u00f6r\u00f0ur Airport","3":"Hofn","country":"Iceland","latitude":64.295601,"longitude":-15.2272,"coords":{"type":"Point","coordinates":[-15.2272,64.295601]}},{"airport":"H\u00fasav\u00edk Airport","3":"Husavik","country":"Iceland","latitude":65.952301,"longitude":-17.426001,"coords":{"type":"Point","coordinates":[-17.426001,65.952301]}},{"airport":"\u00cdsafj\u00f6r\u00f0ur Airport","3":"Isafjordur","country":"Iceland","latitude":66.0580978394,"longitude":-23.1352996826,"coords":{"type":"Point","coordinates":[-23.1352996826,66.0580978394]}},{"airport":"Keflavik International Airport","3":"Keflavik","country":"Iceland","latitude":63.9850006104,"longitude":-22.6056003571,"coords":{"type":"Point","coordinates":[-22.6056003571,63.9850006104]}},{"airport":"Patreksfj\u00f6r\u00f0ur Airport","3":"Patreksfjordur","country":"Iceland","latitude":65.555801,"longitude":-23.965,"coords":{"type":"Point","coordinates":[-23.965,65.555801]}},{"airport":"Reykjavik Airport","3":"Reykjavik","country":"Iceland","latitude":64.1299972534,"longitude":-21.9405994415,"coords":{"type":"Point","coordinates":[-21.9405994415,64.1299972534]}},{"airport":"Siglufj\u00f6r\u00f0ur Airport","3":"Siglufjordur","country":"Iceland","latitude":66.133301,"longitude":-18.9167,"coords":{"type":"Point","coordinates":[-18.9167,66.133301]}},{"airport":"Vestmannaeyjar Airport","3":"Vestmannaeyjar","country":"Iceland","latitude":63.4243011475,"longitude":-20.2789001465,"coords":{"type":"Point","coordinates":[-20.2789001465,63.4243011475]}},{"airport":"Sault Ste Marie Airport","3":"Sault Sainte Marie","country":"Canada","latitude":46.4850006104,"longitude":-84.5093994141,"coords":{"type":"Point","coordinates":[-84.5093994141,46.4850006104]}},{"airport":"Winnipeg \/ St. Andrews Airport","3":"Winnipeg","country":"Canada","latitude":50.0564002991,"longitude":-97.0325012207,"coords":{"type":"Point","coordinates":[-97.0325012207,50.0564002991]}},{"airport":"Halifax \/ CFB Shearwater Heliport","3":"Halifax","country":"Canada","latitude":44.6397018433,"longitude":-63.4994010925,"coords":{"type":"Point","coordinates":[-63.4994010925,44.6397018433]}},{"airport":"St. Anthony Airport","3":"St. Anthony","country":"Canada","latitude":51.3918991089,"longitude":-56.0830993652,"coords":{"type":"Point","coordinates":[-56.0830993652,51.3918991089]}},{"airport":"Tofino \/ Long Beach Airport","3":"Tofino","country":"Canada","latitude":49.079833,"longitude":-125.775583,"coords":{"type":"Point","coordinates":[-125.775583,49.079833]}},{"airport":"Kugaaruk Airport","3":"Pelly Bay","country":"Canada","latitude":68.534401,"longitude":-89.808098,"coords":{"type":"Point","coordinates":[-89.808098,68.534401]}},{"airport":"Baie Comeau Airport","3":"Baie Comeau","country":"Canada","latitude":49.1324996948,"longitude":-68.2043991089,"coords":{"type":"Point","coordinates":[-68.2043991089,49.1324996948]}},{"airport":"CFB Bagotville","3":"Bagotville","country":"Canada","latitude":48.3306007385,"longitude":-70.9963989258,"coords":{"type":"Point","coordinates":[-70.9963989258,48.3306007385]}},{"airport":"Baker Lake Airport","3":"Baker Lake","country":"Canada","latitude":64.2988967896,"longitude":-96.077796936,"coords":{"type":"Point","coordinates":[-96.077796936,64.2988967896]}},{"airport":"Campbell River Airport","3":"Campbell River","country":"Canada","latitude":49.9508018494,"longitude":-125.2710037231,"coords":{"type":"Point","coordinates":[-125.2710037231,49.9508018494]}},{"airport":"Brandon Municipal Airport","3":"Brandon","country":"Canada","latitude":49.91,"longitude":-99.951897,"coords":{"type":"Point","coordinates":[-99.951897,49.91]}},{"airport":"Cambridge Bay Airport","3":"Cambridge Bay","country":"Canada","latitude":69.1081008911,"longitude":-105.138000488,"coords":{"type":"Point","coordinates":[-105.138000488,69.1081008911]}},{"airport":"Nanaimo Airport","3":"Nanaimo","country":"Canada","latitude":49.0549702249,"longitude":-123.869862556,"coords":{"type":"Point","coordinates":[-123.869862556,49.0549702249]}},{"airport":"Castlegar\/West Kootenay Regional Airport","3":"Castlegar","country":"Canada","latitude":49.2963981628,"longitude":-117.632003784,"coords":{"type":"Point","coordinates":[-117.632003784,49.2963981628]}},{"airport":"Miramichi Airport","3":"Chatham","country":"Canada","latitude":47.007801,"longitude":-65.449203,"coords":{"type":"Point","coordinates":[-65.449203,47.007801]}},{"airport":"Charlo Airport","3":"Charlo","country":"Canada","latitude":47.990799,"longitude":-66.330299,"coords":{"type":"Point","coordinates":[-66.330299,47.990799]}},{"airport":"Kugluktuk Airport","3":"Coppermine","country":"Canada","latitude":67.8167037964,"longitude":-115.143997192,"coords":{"type":"Point","coordinates":[-115.143997192,67.8167037964]}},{"airport":"Coronation Airport","3":"Coronation","country":"Canada","latitude":52.0750007629,"longitude":-111.444999695,"coords":{"type":"Point","coordinates":[-111.444999695,52.0750007629]}},{"airport":"Chilliwack Airport","3":"Chilliwack","country":"Canada","latitude":49.1528015137,"longitude":-121.939002991,"coords":{"type":"Point","coordinates":[-121.939002991,49.1528015137]}},{"airport":"Clyde River Airport","3":"Clyde River","country":"Canada","latitude":70.4860992432,"longitude":-68.5167007446,"coords":{"type":"Point","coordinates":[-68.5167007446,70.4860992432]}},{"airport":"Coral Harbour Airport","3":"Coral Harbour","country":"Canada","latitude":64.1932983398,"longitude":-83.3593978882,"coords":{"type":"Point","coordinates":[-83.3593978882,64.1932983398]}},{"airport":"Dawson City Airport","3":"Dawson","country":"Canada","latitude":64.0430984497,"longitude":-139.1280059814,"coords":{"type":"Point","coordinates":[-139.1280059814,64.0430984497]}},{"airport":"Burwash Airport","3":"Burwash","country":"Canada","latitude":61.3711013794,"longitude":-139.0410003662,"coords":{"type":"Point","coordinates":[-139.0410003662,61.3711013794]}},{"airport":"Princeton Airport","3":"Princeton","country":"Canada","latitude":49.4681015015,"longitude":-120.511001587,"coords":{"type":"Point","coordinates":[-120.511001587,49.4681015015]}},{"airport":"Deer Lake Airport","3":"Deer Lake","country":"Canada","latitude":49.2108001709,"longitude":-57.3913993835,"coords":{"type":"Point","coordinates":[-57.3913993835,49.2108001709]}},{"airport":"Dease Lake Airport","3":"Dease Lake","country":"Canada","latitude":58.4221992493,"longitude":-130.031997681,"coords":{"type":"Point","coordinates":[-130.031997681,58.4221992493]}},{"airport":"Dauphin Barker Airport","3":"Dauphin","country":"Canada","latitude":51.1007995605,"longitude":-100.0520019531,"coords":{"type":"Point","coordinates":[-100.0520019531,51.1007995605]}},{"airport":"Dawson Creek Airport","3":"Dawson Creek","country":"Canada","latitude":55.7422981262,"longitude":-120.1829986572,"coords":{"type":"Point","coordinates":[-120.1829986572,55.7422981262]}},{"airport":"Edmonton International Airport","3":"Edmonton","country":"Canada","latitude":53.3097000122,"longitude":-113.580001831,"coords":{"type":"Point","coordinates":[-113.580001831,53.3097000122]}},{"airport":"Arviat Airport","3":"Eskimo Point","country":"Canada","latitude":61.0942001343,"longitude":-94.0708007812,"coords":{"type":"Point","coordinates":[-94.0708007812,61.0942001343]}},{"airport":"Estevan Airport","3":"Estevan","country":"Canada","latitude":49.2103004456,"longitude":-102.966003418,"coords":{"type":"Point","coordinates":[-102.966003418,49.2103004456]}},{"airport":"Edson Airport","3":"Edson","country":"Canada","latitude":53.5788993835,"longitude":-116.464996338,"coords":{"type":"Point","coordinates":[-116.464996338,53.5788993835]}},{"airport":"Eureka Airport","3":"Eureka","country":"Canada","latitude":79.9946975708,"longitude":-85.814201355,"coords":{"type":"Point","coordinates":[-85.814201355,79.9946975708]}},{"airport":"Inuvik Mike Zubko Airport","3":"Inuvik","country":"Canada","latitude":68.3041992188,"longitude":-133.483001709,"coords":{"type":"Point","coordinates":[-133.483001709,68.3041992188]}},{"airport":"Iqaluit Airport","3":"Iqaluit","country":"Canada","latitude":63.756401062,"longitude":-68.5558013916,"coords":{"type":"Point","coordinates":[-68.5558013916,63.756401062]}},{"airport":"Fredericton Airport","3":"Fredericton","country":"Canada","latitude":45.8689002991,"longitude":-66.5372009277,"coords":{"type":"Point","coordinates":[-66.5372009277,45.8689002991]}},{"airport":"Forestville Airport","3":"Forestville","country":"Canada","latitude":48.7461013794,"longitude":-69.0971984863,"coords":{"type":"Point","coordinates":[-69.0971984863,48.7461013794]}},{"airport":"Flin Flon Airport","3":"Flin Flon","country":"Canada","latitude":54.6781005859,"longitude":-101.6819992065,"coords":{"type":"Point","coordinates":[-101.6819992065,54.6781005859]}},{"airport":"Fort Resolution Airport","3":"Fort Resolution","country":"Canada","latitude":61.1808013916,"longitude":-113.690002441,"coords":{"type":"Point","coordinates":[-113.690002441,61.1808013916]}},{"airport":"Fort Simpson Airport","3":"Fort Simpson","country":"Canada","latitude":61.7602005005,"longitude":-121.2369995117,"coords":{"type":"Point","coordinates":[-121.2369995117,61.7602005005]}},{"airport":"Kingston Norman Rogers Airport","3":"Kingston","country":"Canada","latitude":44.2252998352,"longitude":-76.5969009399,"coords":{"type":"Point","coordinates":[-76.5969009399,44.2252998352]}},{"airport":"La Grande Rivi\u00e8re Airport","3":"La Grande Riviere","country":"Canada","latitude":53.6253013611,"longitude":-77.7042007446,"coords":{"type":"Point","coordinates":[-77.7042007446,53.6253013611]}},{"airport":"Gasp\u00e9 (Michel-Pouliot) Airport","3":"Gaspe","country":"Canada","latitude":48.7752990723,"longitude":-64.4785995483,"coords":{"type":"Point","coordinates":[-64.4785995483,48.7752990723]}},{"airport":"Geraldton Greenstone Regional Airport","3":"Geraldton","country":"Canada","latitude":49.778301239,"longitude":-86.9393997192,"coords":{"type":"Point","coordinates":[-86.9393997192,49.778301239]}},{"airport":"\u00celes-de-la-Madeleine Airport","3":"Iles De La Madeleine","country":"Canada","latitude":47.4247016907,"longitude":-61.7780990601,"coords":{"type":"Point","coordinates":[-61.7780990601,47.4247016907]}},{"airport":"Hudson Bay Airport","3":"Hudson Bay","country":"Canada","latitude":52.8166999817,"longitude":-102.310997009,"coords":{"type":"Point","coordinates":[-102.310997009,52.8166999817]}},{"airport":"Dryden Regional Airport","3":"Dryden","country":"Canada","latitude":49.8316993713,"longitude":-92.7442016602,"coords":{"type":"Point","coordinates":[-92.7442016602,49.8316993713]}},{"airport":"Ulukhaktok Holman Airport","3":"Holman Island","country":"Canada","latitude":70.762802124,"longitude":-117.8059997559,"coords":{"type":"Point","coordinates":[-117.8059997559,70.762802124]}},{"airport":"Gjoa Haven Airport","3":"Gjoa Haven","country":"Canada","latitude":68.635597229,"longitude":-95.8497009277,"coords":{"type":"Point","coordinates":[-95.8497009277,68.635597229]}},{"airport":"John C. Munro Hamilton International Airport","3":"Hamilton","country":"Canada","latitude":43.1735992432,"longitude":-79.9349975586,"coords":{"type":"Point","coordinates":[-79.9349975586,43.1735992432]}},{"airport":"Montr\u00e9al \/ Saint-Hubert Airport","3":"Montreal","country":"Canada","latitude":45.5175018311,"longitude":-73.4169006348,"coords":{"type":"Point","coordinates":[-73.4169006348,45.5175018311]}},{"airport":"Hay River \/ Merlyn Carter Airport","3":"Hay River","country":"Canada","latitude":60.8396987915,"longitude":-115.782997131,"coords":{"type":"Point","coordinates":[-115.782997131,60.8396987915]}},{"airport":"Halifax \/ Stanfield International Airport","3":"Halifax","country":"Canada","latitude":44.8807983398,"longitude":-63.5085983276,"coords":{"type":"Point","coordinates":[-63.5085983276,44.8807983398]}},{"airport":"Atikokan Municipal Airport","3":"Atikokan","country":"Canada","latitude":48.7738990784,"longitude":-91.6386032104,"coords":{"type":"Point","coordinates":[-91.6386032104,48.7738990784]}},{"airport":"Pond Inlet Airport","3":"Pond Inlet","country":"Canada","latitude":72.6832962036,"longitude":-77.9666976929,"coords":{"type":"Point","coordinates":[-77.9666976929,72.6832962036]}},{"airport":"St Jean Airport","3":"St. Jean","country":"Canada","latitude":45.2943992615,"longitude":-73.2810974121,"coords":{"type":"Point","coordinates":[-73.2810974121,45.2943992615]}},{"airport":"Stephenville Airport","3":"Stephenville","country":"Canada","latitude":48.5442008972,"longitude":-58.5499992371,"coords":{"type":"Point","coordinates":[-58.5499992371,48.5442008972]}},{"airport":"Kamloops Airport","3":"Kamloops","country":"Canada","latitude":50.7022018433,"longitude":-120.444000244,"coords":{"type":"Point","coordinates":[-120.444000244,50.7022018433]}},{"airport":"Waterloo Airport","3":"Waterloo","country":"Canada","latitude":43.4608001709,"longitude":-80.3786010742,"coords":{"type":"Point","coordinates":[-80.3786010742,43.4608001709]}},{"airport":"Schefferville Airport","3":"Schefferville","country":"Canada","latitude":54.8053016663,"longitude":-66.8052978516,"coords":{"type":"Point","coordinates":[-66.8052978516,54.8053016663]}},{"airport":"Kindersley Airport","3":"Kindersley","country":"Canada","latitude":51.5175018311,"longitude":-109.180999756,"coords":{"type":"Point","coordinates":[-109.180999756,51.5175018311]}},{"airport":"Buttonville Municipal Airport","3":"Toronto","country":"Canada","latitude":43.8622016907,"longitude":-79.3700027466,"coords":{"type":"Point","coordinates":[-79.3700027466,43.8622016907]}},{"airport":"Chapleau Airport","3":"Chapleau","country":"Canada","latitude":47.8199996948,"longitude":-83.3467025757,"coords":{"type":"Point","coordinates":[-83.3467025757,47.8199996948]}},{"airport":"Meadow Lake Airport","3":"Meadow Lake","country":"Canada","latitude":54.1253013611,"longitude":-108.5230026245,"coords":{"type":"Point","coordinates":[-108.5230026245,54.1253013611]}},{"airport":"Lloydminster Airport","3":"Lloydminster","country":"Canada","latitude":53.3092002869,"longitude":-110.0729980469,"coords":{"type":"Point","coordinates":[-110.0729980469,53.3092002869]}},{"airport":"Alert Airport","3":"Alert","country":"Canada","latitude":82.5177993774,"longitude":-62.2806015015,"coords":{"type":"Point","coordinates":[-62.2806015015,82.5177993774]}},{"airport":"Kelowna International Airport","3":"Kelowna","country":"Canada","latitude":49.9561004639,"longitude":-119.377998352,"coords":{"type":"Point","coordinates":[-119.377998352,49.9561004639]}},{"airport":"Mayo Airport","3":"Mayo","country":"Canada","latitude":63.6164016724,"longitude":-135.8679962158,"coords":{"type":"Point","coordinates":[-135.8679962158,63.6164016724]}},{"airport":"Moose Jaw Air Vice Marshal C. M. McEwen Airport","3":"Moose Jaw","country":"Canada","latitude":50.3302993774,"longitude":-105.5589981079,"coords":{"type":"Point","coordinates":[-105.5589981079,50.3302993774]}},{"airport":"Fort McMurray Airport","3":"Fort Mcmurray","country":"Canada","latitude":56.653301239,"longitude":-111.222000122,"coords":{"type":"Point","coordinates":[-111.222000122,56.653301239]}},{"airport":"Moosonee Airport","3":"Moosonee","country":"Canada","latitude":51.2910995483,"longitude":-80.6078033447,"coords":{"type":"Point","coordinates":[-80.6078033447,51.2910995483]}},{"airport":"Maniwaki Airport","3":"Maniwaki","country":"Canada","latitude":46.2728004456,"longitude":-75.9906005859,"coords":{"type":"Point","coordinates":[-75.9906005859,46.2728004456]}},{"airport":"Montreal International (Mirabel) Airport","3":"Montreal","country":"Canada","latitude":45.6795005798,"longitude":-74.0386962891,"coords":{"type":"Point","coordinates":[-74.0386962891,45.6795005798]}},{"airport":"Natashquan Airport","3":"Natashquan","country":"Canada","latitude":50.1899986267,"longitude":-61.7891998291,"coords":{"type":"Point","coordinates":[-61.7891998291,50.1899986267]}},{"airport":"Ottawa \/ Gatineau Airport","3":"Gatineau","country":"Canada","latitude":45.5217018127,"longitude":-75.5635986328,"coords":{"type":"Point","coordinates":[-75.5635986328,45.5217018127]}},{"airport":"Matagami Airport","3":"Matagami","country":"Canada","latitude":49.7616996765,"longitude":-77.8028030396,"coords":{"type":"Point","coordinates":[-77.8028030396,49.7616996765]}},{"airport":"Old Crow Airport","3":"Old Crow","country":"Canada","latitude":67.570602417,"longitude":-139.8390045166,"coords":{"type":"Point","coordinates":[-139.8390045166,67.570602417]}},{"airport":"CFB Cold Lake","3":"Cold Lake","country":"Canada","latitude":54.4049987793,"longitude":-110.2789993286,"coords":{"type":"Point","coordinates":[-110.2789993286,54.4049987793]}},{"airport":"High Level Airport","3":"High Level","country":"Canada","latitude":58.6213989258,"longitude":-117.1650009155,"coords":{"type":"Point","coordinates":[-117.1650009155,58.6213989258]}},{"airport":"Ottawa Macdonald-Cartier International Airport","3":"Ottawa","country":"Canada","latitude":45.3224983215,"longitude":-75.6691970825,"coords":{"type":"Point","coordinates":[-75.6691970825,45.3224983215]}},{"airport":"Prince Albert Glass Field","3":"Prince Albert","country":"Canada","latitude":53.2141990662,"longitude":-105.672996521,"coords":{"type":"Point","coordinates":[-105.672996521,53.2141990662]}},{"airport":"Peace River Airport","3":"Peace River","country":"Canada","latitude":56.2268981934,"longitude":-117.4469985962,"coords":{"type":"Point","coordinates":[-117.4469985962,56.2268981934]}},{"airport":"Southport Airport","3":"Portage-la-prairie","country":"Canada","latitude":49.903099,"longitude":-98.273817,"coords":{"type":"Point","coordinates":[-98.273817,49.903099]}},{"airport":"Pitt Meadows Airport","3":"Pitt Meadows","country":"Canada","latitude":49.2160987854,"longitude":-122.7099990845,"coords":{"type":"Point","coordinates":[-122.7099990845,49.2160987854]}},{"airport":"Pickle Lake Airport","3":"Pickle Lake","country":"Canada","latitude":51.4463996887,"longitude":-90.2142028809,"coords":{"type":"Point","coordinates":[-90.2142028809,51.4463996887]}},{"airport":"Port Menier Airport","3":"Port Menier","country":"Canada","latitude":49.8363990784,"longitude":-64.2885971069,"coords":{"type":"Point","coordinates":[-64.2885971069,49.8363990784]}},{"airport":"Peterborough Airport","3":"Peterborough","country":"Canada","latitude":44.2299995422,"longitude":-78.3632965088,"coords":{"type":"Point","coordinates":[-78.3632965088,44.2299995422]}},{"airport":"Prince Rupert Airport","3":"Prince Pupert","country":"Canada","latitude":54.2860984802,"longitude":-130.445007324,"coords":{"type":"Point","coordinates":[-130.445007324,54.2860984802]}},{"airport":"Fort Chipewyan Airport","3":"Fort Chipewyan","country":"Canada","latitude":58.76720047,"longitude":-111.1169967651,"coords":{"type":"Point","coordinates":[-111.1169967651,58.76720047]}},{"airport":"Muskoka Airport","3":"Muskoka","country":"Canada","latitude":44.9747009277,"longitude":-79.3032989502,"coords":{"type":"Point","coordinates":[-79.3032989502,44.9747009277]}},{"airport":"Quebec Jean Lesage International Airport","3":"Quebec","country":"Canada","latitude":46.7911,"longitude":-71.393303,"coords":{"type":"Point","coordinates":[-71.393303,46.7911]}},{"airport":"Red Deer Regional Airport","3":"Red Deer Industrial","country":"Canada","latitude":52.1822013855,"longitude":-113.8939971924,"coords":{"type":"Point","coordinates":[-113.8939971924,52.1822013855]}},{"airport":"Windsor Airport","3":"Windsor","country":"Canada","latitude":42.2756004333,"longitude":-82.9555969238,"coords":{"type":"Point","coordinates":[-82.9555969238,42.2756004333]}},{"airport":"Watson Lake Airport","3":"Watson Lake","country":"Canada","latitude":60.1164016724,"longitude":-128.8220062256,"coords":{"type":"Point","coordinates":[-128.8220062256,60.1164016724]}},{"airport":"Kenora Airport","3":"Kenora","country":"Canada","latitude":49.7882995605,"longitude":-94.3630981445,"coords":{"type":"Point","coordinates":[-94.3630981445,49.7882995605]}},{"airport":"Lethbridge County Airport","3":"Lethbridge","country":"Canada","latitude":49.6302986145,"longitude":-112.800003052,"coords":{"type":"Point","coordinates":[-112.800003052,49.6302986145]}},{"airport":"Greater Moncton International Airport","3":"Moncton","country":"Canada","latitude":46.1122016907,"longitude":-64.6785964966,"coords":{"type":"Point","coordinates":[-64.6785964966,46.1122016907]}},{"airport":"Comox Airport","3":"Comox","country":"Canada","latitude":49.7108001709,"longitude":-124.8870010376,"coords":{"type":"Point","coordinates":[-124.8870010376,49.7108001709]}},{"airport":"Regina International Airport","3":"Regina","country":"Canada","latitude":50.4319000244,"longitude":-104.6660003662,"coords":{"type":"Point","coordinates":[-104.6660003662,50.4319000244]}},{"airport":"Thunder Bay Airport","3":"Thunder Bay","country":"Canada","latitude":48.3718986511,"longitude":-89.3238983154,"coords":{"type":"Point","coordinates":[-89.3238983154,48.3718986511]}},{"airport":"Grande Prairie Airport","3":"Grande Prairie","country":"Canada","latitude":55.1796989441,"longitude":-118.885002136,"coords":{"type":"Point","coordinates":[-118.885002136,55.1796989441]}},{"airport":"Yorkton Municipal Airport","3":"Yorkton","country":"Canada","latitude":51.2647018433,"longitude":-102.4619979858,"coords":{"type":"Point","coordinates":[-102.4619979858,51.2647018433]}},{"airport":"North Battleford Airport","3":"North Battleford","country":"Canada","latitude":52.7691993713,"longitude":-108.2440032959,"coords":{"type":"Point","coordinates":[-108.2440032959,52.7691993713]}},{"airport":"Gander International Airport","3":"Gander","country":"Canada","latitude":48.9369010925,"longitude":-54.5680999756,"coords":{"type":"Point","coordinates":[-54.5680999756,48.9369010925]}},{"airport":"Sydney \/ J.A. Douglas McCurdy Airport","3":"Sydney","country":"Canada","latitude":46.1613998413,"longitude":-60.0477981567,"coords":{"type":"Point","coordinates":[-60.0477981567,46.1613998413]}},{"airport":"Quesnel Airport","3":"Quesnel","country":"Canada","latitude":53.0261001587,"longitude":-122.5100021362,"coords":{"type":"Point","coordinates":[-122.5100021362,53.0261001587]}},{"airport":"Resolute Bay Airport","3":"Resolute","country":"Canada","latitude":74.7169036865,"longitude":-94.9693984985,"coords":{"type":"Point","coordinates":[-94.9693984985,74.7169036865]}},{"airport":"Rivi\u00e8re-du-Loup Airport","3":"Riviere Du Loup","country":"Canada","latitude":47.7644004822,"longitude":-69.5847015381,"coords":{"type":"Point","coordinates":[-69.5847015381,47.7644004822]}},{"airport":"Roberval Airport","3":"Roberval","country":"Canada","latitude":48.5200004578,"longitude":-72.2656021118,"coords":{"type":"Point","coordinates":[-72.2656021118,48.5200004578]}},{"airport":"Rocky Mountain House Airport","3":"Rocky Mountain House","country":"Canada","latitude":52.4296989441,"longitude":-114.903999329,"coords":{"type":"Point","coordinates":[-114.903999329,52.4296989441]}},{"airport":"Rankin Inlet Airport","3":"Rankin Inlet","country":"Canada","latitude":62.8114013672,"longitude":-92.1157989502,"coords":{"type":"Point","coordinates":[-92.1157989502,62.8114013672]}},{"airport":"Sudbury Airport","3":"Sudbury","country":"Canada","latitude":46.625,"longitude":-80.7988967896,"coords":{"type":"Point","coordinates":[-80.7988967896,46.625]}},{"airport":"Sherbrooke Airport","3":"Sherbrooke","country":"Canada","latitude":45.4385986328,"longitude":-71.6913986206,"coords":{"type":"Point","coordinates":[-71.6913986206,45.4385986328]}},{"airport":"Saint John Airport","3":"St. John","country":"Canada","latitude":45.3161010742,"longitude":-65.890296936,"coords":{"type":"Point","coordinates":[-65.890296936,45.3161010742]}},{"airport":"Fort Smith Airport","3":"Fort Smith","country":"Canada","latitude":60.0203018188,"longitude":-111.9619979858,"coords":{"type":"Point","coordinates":[-111.9619979858,60.0203018188]}},{"airport":"Nanisivik Airport","3":"Nanisivik","country":"Canada","latitude":72.982201,"longitude":-84.613602,"coords":{"type":"Point","coordinates":[-84.613602,72.982201]}},{"airport":"Summerside Airport","3":"Summerside","country":"Canada","latitude":46.4406013489,"longitude":-63.8335990906,"coords":{"type":"Point","coordinates":[-63.8335990906,46.4406013489]}},{"airport":"Sachs Harbour (David Nasogaluak Jr. Saaryuaq) Airport","3":"Sachs Harbour","country":"Canada","latitude":71.9938964844,"longitude":-125.242996216,"coords":{"type":"Point","coordinates":[-125.242996216,71.9938964844]}},{"airport":"Cape Dorset Airport","3":"Cape Dorset","country":"Canada","latitude":64.2300033569,"longitude":-76.5267028809,"coords":{"type":"Point","coordinates":[-76.5267028809,64.2300033569]}},{"airport":"Thompson Airport","3":"Thompson","country":"Canada","latitude":55.8011016846,"longitude":-97.8641967773,"coords":{"type":"Point","coordinates":[-97.8641967773,55.8011016846]}},{"airport":"CFB Trenton","3":"Trenton","country":"Canada","latitude":44.1189002991,"longitude":-77.5280990601,"coords":{"type":"Point","coordinates":[-77.5280990601,44.1189002991]}},{"airport":"Timmins\/Victor M. Power","3":"Timmins","country":"Canada","latitude":48.5696983337,"longitude":-81.376701355,"coords":{"type":"Point","coordinates":[-81.376701355,48.5696983337]}},{"airport":"Billy Bishop Toronto City Centre Airport","3":"Toronto","country":"Canada","latitude":43.627499,"longitude":-79.396202,"coords":{"type":"Point","coordinates":[-79.396202,43.627499]}},{"airport":"Tuktoyaktuk Airport","3":"Tuktoyaktuk","country":"Canada","latitude":69.4332962036,"longitude":-133.0260009766,"coords":{"type":"Point","coordinates":[-133.0260009766,69.4332962036]}},{"airport":"Montreal \/ Pierre Elliott Trudeau International Airport","3":"Montreal","country":"Canada","latitude":45.4706001282,"longitude":-73.7407989502,"coords":{"type":"Point","coordinates":[-73.7407989502,45.4706001282]}},{"airport":"Repulse Bay Airport","3":"Repulse Bay","country":"Canada","latitude":66.5214004517,"longitude":-86.2247009277,"coords":{"type":"Point","coordinates":[-86.2247009277,66.5214004517]}},{"airport":"Hall Beach Airport","3":"Hall Beach","country":"Canada","latitude":68.7761001587,"longitude":-81.2425,"coords":{"type":"Point","coordinates":[-81.2425,68.7761001587]}},{"airport":"Rouyn Noranda Airport","3":"Rouyn","country":"Canada","latitude":48.2061004639,"longitude":-78.8356018066,"coords":{"type":"Point","coordinates":[-78.8356018066,48.2061004639]}},{"airport":"La Ronge Airport","3":"La Ronge","country":"Canada","latitude":55.1514015198,"longitude":-105.262001038,"coords":{"type":"Point","coordinates":[-105.262001038,55.1514015198]}},{"airport":"Vermilion Airport","3":"Vermillion","country":"Canada","latitude":53.3558006287,"longitude":-110.823997498,"coords":{"type":"Point","coordinates":[-110.823997498,53.3558006287]}},{"airport":"Qikiqtarjuaq Airport","3":"Broughton Island","country":"Canada","latitude":67.5457992554,"longitude":-64.0314025879,"coords":{"type":"Point","coordinates":[-64.0314025879,67.5457992554]}},{"airport":"Val-d'Or Airport","3":"Val D'or","country":"Canada","latitude":48.0532989502,"longitude":-77.7827987671,"coords":{"type":"Point","coordinates":[-77.7827987671,48.0532989502]}},{"airport":"Kuujjuaq Airport","3":"Quujjuaq","country":"Canada","latitude":58.0960998535,"longitude":-68.426902771,"coords":{"type":"Point","coordinates":[-68.426902771,58.0960998535]}},{"airport":"Norman Wells Airport","3":"Norman Wells","country":"Canada","latitude":65.2816009521,"longitude":-126.797996521,"coords":{"type":"Point","coordinates":[-126.797996521,65.2816009521]}},{"airport":"Vancouver International Airport","3":"Vancouver","country":"Canada","latitude":49.193901062,"longitude":-123.183998108,"coords":{"type":"Point","coordinates":[-123.183998108,49.193901062]}},{"airport":"Buffalo Narrows Airport","3":"Buffalo Narrows","country":"Canada","latitude":55.8418998718,"longitude":-108.417999268,"coords":{"type":"Point","coordinates":[-108.417999268,55.8418998718]}},{"airport":"Wiarton Airport","3":"Wiarton","country":"Canada","latitude":44.7458,"longitude":-81.107201,"coords":{"type":"Point","coordinates":[-81.107201,44.7458]}},{"airport":"Petawawa Airport","3":"Petawawa","country":"Canada","latitude":45.9522018433,"longitude":-77.3191986084,"coords":{"type":"Point","coordinates":[-77.3191986084,45.9522018433]}},{"airport":"Winnipeg \/ James Armstrong Richardson International Airport","3":"Winnipeg","country":"Canada","latitude":49.9099998474,"longitude":-97.2398986816,"coords":{"type":"Point","coordinates":[-97.2398986816,49.9099998474]}},{"airport":"Wabush Airport","3":"Wabush","country":"Canada","latitude":52.9219017029,"longitude":-66.864402771,"coords":{"type":"Point","coordinates":[-66.864402771,52.9219017029]}},{"airport":"Williams Lake Airport","3":"Williams Lake","country":"Canada","latitude":52.1831016541,"longitude":-122.054000854,"coords":{"type":"Point","coordinates":[-122.054000854,52.1831016541]}},{"airport":"Wrigley Airport","3":"Wrigley","country":"Canada","latitude":63.209400177,"longitude":-123.43699646,"coords":{"type":"Point","coordinates":[-123.43699646,63.209400177]}},{"airport":"Cranbrook\/Canadian Rockies International Airport","3":"Cranbrook","country":"Canada","latitude":49.6108016968,"longitude":-115.7819976807,"coords":{"type":"Point","coordinates":[-115.7819976807,49.6108016968]}},{"airport":"Edmonton City Centre (Blatchford Field) Airport","3":"Edmonton","country":"Canada","latitude":53.5724983215,"longitude":-113.521003723,"coords":{"type":"Point","coordinates":[-113.521003723,53.5724983215]}},{"airport":"Saskatoon John G. Diefenbaker International Airport","3":"Saskatoon","country":"Canada","latitude":52.1707992554,"longitude":-106.6999969482,"coords":{"type":"Point","coordinates":[-106.6999969482,52.1707992554]}},{"airport":"Medicine Hat Airport","3":"Medicine Hat","country":"Canada","latitude":50.018901825,"longitude":-110.7210006714,"coords":{"type":"Point","coordinates":[-110.7210006714,50.018901825]}},{"airport":"Fort St John Airport","3":"Fort Saint John","country":"Canada","latitude":56.2380981445,"longitude":-120.7399978638,"coords":{"type":"Point","coordinates":[-120.7399978638,56.2380981445]}},{"airport":"Sioux Lookout Airport","3":"Sioux Lookout","country":"Canada","latitude":50.113899231,"longitude":-91.9052963257,"coords":{"type":"Point","coordinates":[-91.9052963257,50.113899231]}},{"airport":"Pangnirtung Airport","3":"Pangnirtung","country":"Canada","latitude":66.1449966431,"longitude":-65.7136001587,"coords":{"type":"Point","coordinates":[-65.7136001587,66.1449966431]}},{"airport":"Earlton (Timiskaming Regional) Airport","3":"Earlton","country":"Canada","latitude":47.6974006546,"longitude":-79.8473453522,"coords":{"type":"Point","coordinates":[-79.8473453522,47.6974006546]}},{"airport":"Prince George Airport","3":"Prince George","country":"Canada","latitude":53.8894004822,"longitude":-122.679000854,"coords":{"type":"Point","coordinates":[-122.679000854,53.8894004822]}},{"airport":"Northwest Regional Airport Terrace-Kitimat","3":"Terrace","country":"Canada","latitude":54.468498,"longitude":-128.576009,"coords":{"type":"Point","coordinates":[-128.576009,54.468498]}},{"airport":"London Airport","3":"London","country":"Canada","latitude":43.035599,"longitude":-81.1539,"coords":{"type":"Point","coordinates":[-81.1539,43.035599]}},{"airport":"Abbotsford Airport","3":"Abbotsford","country":"Canada","latitude":49.0252990723,"longitude":-122.361000061,"coords":{"type":"Point","coordinates":[-122.361000061,49.0252990723]}},{"airport":"Whitehorse \/ Erik Nielsen International Airport","3":"Whitehorse","country":"Canada","latitude":60.7095985413,"longitude":-135.067001343,"coords":{"type":"Point","coordinates":[-135.067001343,60.7095985413]}},{"airport":"North Bay Airport","3":"North Bay","country":"Canada","latitude":46.3636016846,"longitude":-79.4227981567,"coords":{"type":"Point","coordinates":[-79.4227981567,46.3636016846]}},{"airport":"Calgary International Airport","3":"Calgary","country":"Canada","latitude":51.113899231,"longitude":-114.019996643,"coords":{"type":"Point","coordinates":[-114.019996643,51.113899231]}},{"airport":"Smithers Airport","3":"Smithers","country":"Canada","latitude":54.8246994019,"longitude":-127.1829986572,"coords":{"type":"Point","coordinates":[-127.1829986572,54.8246994019]}},{"airport":"Fort Nelson Airport","3":"Fort Nelson","country":"Canada","latitude":58.8363990784,"longitude":-122.597000122,"coords":{"type":"Point","coordinates":[-122.597000122,58.8363990784]}},{"airport":"Penticton Airport","3":"Penticton","country":"Canada","latitude":49.4631004333,"longitude":-119.6019973755,"coords":{"type":"Point","coordinates":[-119.6019973755,49.4631004333]}},{"airport":"Charlottetown Airport","3":"Charlottetown","country":"Canada","latitude":46.2900009155,"longitude":-63.1211013794,"coords":{"type":"Point","coordinates":[-63.1211013794,46.2900009155]}},{"airport":"Taloyoak Airport","3":"Spence Bay","country":"Canada","latitude":69.5466995239,"longitude":-93.5766983032,"coords":{"type":"Point","coordinates":[-93.5766983032,69.5466995239]}},{"airport":"Victoria International Airport","3":"Victoria","country":"Canada","latitude":48.646900177,"longitude":-123.426002502,"coords":{"type":"Point","coordinates":[-123.426002502,48.646900177]}},{"airport":"Lynn Lake Airport","3":"Lynn Lake","country":"Canada","latitude":56.863899231,"longitude":-101.0759963989,"coords":{"type":"Point","coordinates":[-101.0759963989,56.863899231]}},{"airport":"Swift Current Airport","3":"Swift Current","country":"Canada","latitude":50.2919006348,"longitude":-107.691001892,"coords":{"type":"Point","coordinates":[-107.691001892,50.2919006348]}},{"airport":"Churchill Airport","3":"Churchill","country":"Canada","latitude":58.739200592,"longitude":-94.0650024414,"coords":{"type":"Point","coordinates":[-94.0650024414,58.739200592]}},{"airport":"Goose Bay Airport","3":"Goose Bay","country":"Canada","latitude":53.3191986084,"longitude":-60.4258003235,"coords":{"type":"Point","coordinates":[-60.4258003235,53.3191986084]}},{"airport":"St. John's International Airport","3":"St. John's","country":"Canada","latitude":47.618598938,"longitude":-52.7518997192,"coords":{"type":"Point","coordinates":[-52.7518997192,47.618598938]}},{"airport":"Kapuskasing Airport","3":"Kapuskasing","country":"Canada","latitude":49.413898468,"longitude":-82.4674987793,"coords":{"type":"Point","coordinates":[-82.4674987793,49.413898468]}},{"airport":"Armstrong Airport","3":"Armstrong","country":"Canada","latitude":50.2902984619,"longitude":-88.9096984863,"coords":{"type":"Point","coordinates":[-88.9096984863,50.2902984619]}},{"airport":"Mont Joli Airport","3":"Mont Joli","country":"Canada","latitude":48.6086006165,"longitude":-68.2080993652,"coords":{"type":"Point","coordinates":[-68.2080993652,48.6086006165]}},{"airport":"Lester B. Pearson International Airport","3":"Toronto","country":"Canada","latitude":43.6772003174,"longitude":-79.6305999756,"coords":{"type":"Point","coordinates":[-79.6305999756,43.6772003174]}},{"airport":"Downsview Airport","3":"Toronto","country":"Canada","latitude":43.7425003052,"longitude":-79.4655990601,"coords":{"type":"Point","coordinates":[-79.4655990601,43.7425003052]}},{"airport":"Gore Bay Manitoulin Airport","3":"Gore Bay","country":"Canada","latitude":45.8852996826,"longitude":-82.5678024292,"coords":{"type":"Point","coordinates":[-82.5678024292,45.8852996826]}},{"airport":"Yellowknife Airport","3":"Yellowknife","country":"Canada","latitude":62.4627990723,"longitude":-114.4400024414,"coords":{"type":"Point","coordinates":[-114.4400024414,62.4627990723]}},{"airport":"Slave Lake Airport","3":"Slave Lake","country":"Canada","latitude":55.2930984497,"longitude":-114.777000427,"coords":{"type":"Point","coordinates":[-114.777000427,55.2930984497]}},{"airport":"Sandspit Airport","3":"Sandspit","country":"Canada","latitude":53.2542991638,"longitude":-131.813995361,"coords":{"type":"Point","coordinates":[-131.813995361,53.2542991638]}},{"airport":"Chris Hadfield Airport","3":"Sarnia","country":"Canada","latitude":42.9994010925,"longitude":-82.3088989258,"coords":{"type":"Point","coordinates":[-82.3088989258,42.9994010925]}},{"airport":"Port Hardy Airport","3":"Port Hardy","country":"Canada","latitude":50.6805992126,"longitude":-127.3669967651,"coords":{"type":"Point","coordinates":[-127.3669967651,50.6805992126]}},{"airport":"Whitecourt Airport","3":"Whitecourt","country":"Canada","latitude":54.143901825,"longitude":-115.7870025635,"coords":{"type":"Point","coordinates":[-115.7870025635,54.143901825]}},{"airport":"Sept-\u00celes Airport","3":"Sept-iles","country":"Canada","latitude":50.2233009338,"longitude":-66.2656021118,"coords":{"type":"Point","coordinates":[-66.2656021118,50.2233009338]}},{"airport":"Teslin Airport","3":"Teslin","country":"Canada","latitude":60.1727981567,"longitude":-132.7429962158,"coords":{"type":"Point","coordinates":[-132.7429962158,60.1727981567]}},{"airport":"CFB Greenwood","3":"Greenwood","country":"Canada","latitude":44.9844017029,"longitude":-64.9169006348,"coords":{"type":"Point","coordinates":[-64.9169006348,44.9844017029]}},{"airport":"Faro Airport","3":"Faro","country":"Canada","latitude":62.2075004578,"longitude":-133.3760070801,"coords":{"type":"Point","coordinates":[-133.3760070801,62.2075004578]}},{"airport":"Fort Mcpherson Airport","3":"Fort Mcpherson","country":"Canada","latitude":67.4075012207,"longitude":-134.8609924316,"coords":{"type":"Point","coordinates":[-134.8609924316,67.4075012207]}},{"airport":"Blida Airport","3":"Blida","country":"Algeria","latitude":36.5036010742,"longitude":2.8141698837,"coords":{"type":"Point","coordinates":[2.8141698837,36.5036010742]}},{"airport":"Bou Saada Airport","3":"Bou Saada","country":"Algeria","latitude":35.3325004578,"longitude":4.206389904,"coords":{"type":"Point","coordinates":[4.206389904,35.3325004578]}},{"airport":"Soummam Airport","3":"Bejaja","country":"Algeria","latitude":36.7120018005,"longitude":5.069920063,"coords":{"type":"Point","coordinates":[5.069920063,36.7120018005]}},{"airport":"Houari Boumediene Airport","3":"Algier","country":"Algeria","latitude":36.6910018921,"longitude":3.2154099941,"coords":{"type":"Point","coordinates":[3.2154099941,36.6910018921]}},{"airport":"Djanet Inedbirene Airport","3":"Djanet","country":"Algeria","latitude":24.2928009033,"longitude":9.4524402618,"coords":{"type":"Point","coordinates":[9.4524402618,24.2928009033]}},{"airport":"Boufarik Airport","3":"Boufarik","country":"Algeria","latitude":36.545799,"longitude":2.87611,"coords":{"type":"Point","coordinates":[2.87611,36.545799]}},{"airport":"Reggane Airport","3":"Reggan","country":"Algeria","latitude":26.710100174,"longitude":0.2856470048,"coords":{"type":"Point","coordinates":[0.2856470048,26.710100174]}},{"airport":"Illizi Takhamalt Airport","3":"Illizi","country":"Algeria","latitude":26.7234992981,"longitude":8.6226501465,"coords":{"type":"Point","coordinates":[8.6226501465,26.7234992981]}},{"airport":"Ain Oussera Airport","3":"Ain Oussera","country":"Algeria","latitude":35.5253982544,"longitude":2.8787100315,"coords":{"type":"Point","coordinates":[2.8787100315,35.5253982544]}},{"airport":"Aguenar \u2013 Hadj Bey Akhamok Airport","3":"Tamanrasset","country":"Algeria","latitude":22.8115005493,"longitude":5.4510798454,"coords":{"type":"Point","coordinates":[5.4510798454,22.8115005493]}},{"airport":"Jijel Ferhat Abbas Airport","3":"Jijel","country":"Algeria","latitude":36.7951011658,"longitude":5.8736100197,"coords":{"type":"Point","coordinates":[5.8736100197,36.7951011658]}},{"airport":"Mecheria Airport","3":"Mecheria","country":"Algeria","latitude":33.535900116,"longitude":-0.2423530072,"coords":{"type":"Point","coordinates":[-0.2423530072,33.535900116]}},{"airport":"Relizane Airport","3":"Relizane","country":"Algeria","latitude":35.7522010803,"longitude":0.6262720227,"coords":{"type":"Point","coordinates":[0.6262720227,35.7522010803]}},{"airport":"Annaba Airport","3":"Annaba","country":"Algeria","latitude":36.8222007751,"longitude":7.8091697693,"coords":{"type":"Point","coordinates":[7.8091697693,36.8222007751]}},{"airport":"Mohamed Boudiaf International Airport","3":"Constantine","country":"Algeria","latitude":36.2760009766,"longitude":6.6203899384,"coords":{"type":"Point","coordinates":[6.6203899384,36.2760009766]}},{"airport":"Cheikh Larbi T\u00e9bessi Airport","3":"Tebessa","country":"Algeria","latitude":35.4315986633,"longitude":8.1207199097,"coords":{"type":"Point","coordinates":[8.1207199097,35.4315986633]}},{"airport":"Hassi R'Mel Airport","3":"Tilrempt","country":"Algeria","latitude":32.9304008484,"longitude":3.3115398884,"coords":{"type":"Point","coordinates":[3.3115398884,32.9304008484]}},{"airport":"Bou Chekif Airport","3":"Tiaret","country":"Algeria","latitude":35.3410987854,"longitude":1.4631500244,"coords":{"type":"Point","coordinates":[1.4631500244,35.3410987854]}},{"airport":"Bou Sfer Airport","3":"Bou Sfer","country":"Algeria","latitude":35.7354011536,"longitude":-0.8053889871,"coords":{"type":"Point","coordinates":[-0.8053889871,35.7354011536]}},{"airport":"Tindouf Airport","3":"Tindouf","country":"Algeria","latitude":27.7003993988,"longitude":-8.1670999527,"coords":{"type":"Point","coordinates":[-8.1670999527,27.7003993988]}},{"airport":"Ech Cheliff Airport","3":"Ech-cheliff","country":"Algeria","latitude":36.2126998901,"longitude":1.3317699432,"coords":{"type":"Point","coordinates":[1.3317699432,36.2126998901]}},{"airport":"Tafaraoui Airport","3":"Oran","country":"Algeria","latitude":35.5424003601,"longitude":-0.5322780013,"coords":{"type":"Point","coordinates":[-0.5322780013,35.5424003601]}},{"airport":"Zenata \u2013 Messali El Hadj Airport","3":"Tlemcen","country":"Algeria","latitude":35.0167007446,"longitude":-1.4500000477,"coords":{"type":"Point","coordinates":[-1.4500000477,35.0167007446]}},{"airport":"Es Senia Airport","3":"Oran","country":"Algeria","latitude":35.6239013672,"longitude":-0.6211829782,"coords":{"type":"Point","coordinates":[-0.6211829782,35.6239013672]}},{"airport":"Sidi Bel Abbes Airport","3":"Sidi Bel Abbes","country":"Algeria","latitude":35.1717987061,"longitude":-0.5932750106,"coords":{"type":"Point","coordinates":[-0.5932750106,35.1717987061]}},{"airport":"Ghriss Airport","3":"Ghriss","country":"Algeria","latitude":35.207698822,"longitude":0.147141993,"coords":{"type":"Point","coordinates":[0.147141993,35.207698822]}},{"airport":"Touat Cheikh Sidi Mohamed Belkebir Airport","3":"Adrar","country":"Algeria","latitude":27.837600708,"longitude":-0.1864140034,"coords":{"type":"Point","coordinates":[-0.1864140034,27.837600708]}},{"airport":"Biskra Airport","3":"Biskra","country":"Algeria","latitude":34.7933006287,"longitude":5.7382302284,"coords":{"type":"Point","coordinates":[5.7382302284,34.7933006287]}},{"airport":"El Golea Airport","3":"El Golea","country":"Algeria","latitude":30.5713005066,"longitude":2.8595900536,"coords":{"type":"Point","coordinates":[2.8595900536,30.5713005066]}},{"airport":"Noum\u00e9rat - Moufdi Zakaria Airport","3":"Ghardaia","country":"Algeria","latitude":32.3841018677,"longitude":3.7941100597,"coords":{"type":"Point","coordinates":[3.7941100597,32.3841018677]}},{"airport":"Oued Irara Airport","3":"Hassi Messaoud","country":"Algeria","latitude":31.6730003357,"longitude":6.1404399872,"coords":{"type":"Point","coordinates":[6.1404399872,31.6730003357]}},{"airport":"In Salah Airport","3":"In Salah","country":"Algeria","latitude":27.2509994507,"longitude":2.5120201111,"coords":{"type":"Point","coordinates":[2.5120201111,27.2509994507]}},{"airport":"Touggourt Sidi Madhi Airport","3":"Touggourt","country":"Algeria","latitude":33.0677986145,"longitude":6.0886697769,"coords":{"type":"Point","coordinates":[6.0886697769,33.0677986145]}},{"airport":"Laghouat Airport","3":"Laghouat","country":"Algeria","latitude":33.7644004822,"longitude":2.9283399582,"coords":{"type":"Point","coordinates":[2.9283399582,33.7644004822]}},{"airport":"Timimoun Airport","3":"Timimoun","country":"Algeria","latitude":29.2371006012,"longitude":0.2760330141,"coords":{"type":"Point","coordinates":[0.2760330141,29.2371006012]}},{"airport":"Ain el Beida Airport","3":"Ouargla","country":"Algeria","latitude":31.9172000885,"longitude":5.412779808,"coords":{"type":"Point","coordinates":[5.412779808,31.9172000885]}},{"airport":"In Am\u00e9nas Airport","3":"Zarzaitine","country":"Algeria","latitude":28.0515003204,"longitude":9.6429100037,"coords":{"type":"Point","coordinates":[9.6429100037,28.0515003204]}},{"airport":"Cadjehoun Airport","3":"Cotonou","country":"Benin","latitude":6.3572301865,"longitude":2.3843500614,"coords":{"type":"Point","coordinates":[2.3843500614,6.3572301865]}},{"airport":"Ouagadougou Airport","3":"Ouagadougou","country":"Burkina Faso","latitude":12.3531999588,"longitude":-1.5124200583,"coords":{"type":"Point","coordinates":[-1.5124200583,12.3531999588]}},{"airport":"Bobo Dioulasso Airport","3":"Bobo-dioulasso","country":"Burkina Faso","latitude":11.1600999832,"longitude":-4.3309698105,"coords":{"type":"Point","coordinates":[-4.3309698105,11.1600999832]}},{"airport":"Kotoka International Airport","3":"Accra","country":"Ghana","latitude":5.6051898003,"longitude":-0.1667860001,"coords":{"type":"Point","coordinates":[-0.1667860001,5.6051898003]}},{"airport":"Tamale Airport","3":"Tamale","country":"Ghana","latitude":9.5571899414,"longitude":-0.863214016,"coords":{"type":"Point","coordinates":[-0.863214016,9.5571899414]}},{"airport":"Wa Airport","3":"Wa","country":"Ghana","latitude":10.0826997757,"longitude":-2.5076899529,"coords":{"type":"Point","coordinates":[-2.5076899529,10.0826997757]}},{"airport":"Sunyani Airport","3":"Sunyani","country":"Ghana","latitude":7.3618302345,"longitude":-2.3287599087,"coords":{"type":"Point","coordinates":[-2.3287599087,7.3618302345]}},{"airport":"Takoradi Airport","3":"Takoradi","country":"Ghana","latitude":4.8960599899,"longitude":-1.7747600079,"coords":{"type":"Point","coordinates":[-1.7747600079,4.8960599899]}},{"airport":"Port Bouet Airport","3":"Abidjan","country":"Cote d'Ivoire","latitude":5.2613902092,"longitude":-3.9262900352,"coords":{"type":"Point","coordinates":[-3.9262900352,5.2613902092]}},{"airport":"Bouak\u00e9 Airport","3":"Bouake","country":"Cote d'Ivoire","latitude":7.7388000488,"longitude":-5.0736699104,"coords":{"type":"Point","coordinates":[-5.0736699104,7.7388000488]}},{"airport":"Daloa Airport","3":"Daloa","country":"Cote d'Ivoire","latitude":6.7928099632,"longitude":-6.4731898308,"coords":{"type":"Point","coordinates":[-6.4731898308,6.7928099632]}},{"airport":"Korhogo Airport","3":"Korhogo","country":"Cote d'Ivoire","latitude":9.3871803284,"longitude":-5.5566601753,"coords":{"type":"Point","coordinates":[-5.5566601753,9.3871803284]}},{"airport":"Man Airport","3":"Man","country":"Cote d'Ivoire","latitude":7.272069931,"longitude":-7.5873599052,"coords":{"type":"Point","coordinates":[-7.5873599052,7.272069931]}},{"airport":"San Pedro Airport","3":"San Pedro","country":"Cote d'Ivoire","latitude":4.7467198372,"longitude":-6.6608200073,"coords":{"type":"Point","coordinates":[-6.6608200073,4.7467198372]}},{"airport":"Yamoussoukro Airport","3":"Yamoussoukro","country":"Cote d'Ivoire","latitude":6.9031701088,"longitude":-5.3655800819,"coords":{"type":"Point","coordinates":[-5.3655800819,6.9031701088]}},{"airport":"Nnamdi Azikiwe International Airport","3":"Abuja","country":"Nigeria","latitude":9.0067901611,"longitude":7.2631697655,"coords":{"type":"Point","coordinates":[7.2631697655,9.0067901611]}},{"airport":"Akure Airport","3":"Akure","country":"Nigeria","latitude":7.2467398643,"longitude":5.3010101318,"coords":{"type":"Point","coordinates":[5.3010101318,7.2467398643]}},{"airport":"Benin Airport","3":"Benin","country":"Nigeria","latitude":6.3169798851,"longitude":5.5995001793,"coords":{"type":"Point","coordinates":[5.5995001793,6.3169798851]}},{"airport":"Margaret Ekpo International Airport","3":"Calabar","country":"Nigeria","latitude":4.9760198593,"longitude":8.3472003937,"coords":{"type":"Point","coordinates":[8.3472003937,4.9760198593]}},{"airport":"Akanu Ibiam International Airport","3":"Enugu","country":"Nigeria","latitude":6.4742698669,"longitude":7.5619602203,"coords":{"type":"Point","coordinates":[7.5619602203,6.4742698669]}},{"airport":"Gusau Airport","3":"Gusau","country":"Nigeria","latitude":12.1716995239,"longitude":6.6961097717,"coords":{"type":"Point","coordinates":[6.6961097717,12.1716995239]}},{"airport":"Ibadan Airport","3":"Ibadan","country":"Nigeria","latitude":7.3624601364,"longitude":3.9783298969,"coords":{"type":"Point","coordinates":[3.9783298969,7.3624601364]}},{"airport":"Ilorin International Airport","3":"Ilorin","country":"Nigeria","latitude":8.4402103424,"longitude":4.4939198494,"coords":{"type":"Point","coordinates":[4.4939198494,8.4402103424]}},{"airport":"Yakubu Gowon Airport","3":"Jos","country":"Nigeria","latitude":9.6398296356,"longitude":8.8690500259,"coords":{"type":"Point","coordinates":[8.8690500259,9.6398296356]}},{"airport":"Kaduna Airport","3":"Kaduna","country":"Nigeria","latitude":10.6960000992,"longitude":7.3201098442,"coords":{"type":"Point","coordinates":[7.3201098442,10.6960000992]}},{"airport":"Mallam Aminu International Airport","3":"Kano","country":"Nigeria","latitude":12.0475997925,"longitude":8.5246200562,"coords":{"type":"Point","coordinates":[8.5246200562,12.0475997925]}},{"airport":"Maiduguri International Airport","3":"Maiduguri","country":"Nigeria","latitude":11.8552999496,"longitude":13.0809001923,"coords":{"type":"Point","coordinates":[13.0809001923,11.8552999496]}},{"airport":"Makurdi Airport","3":"Makurdi","country":"Nigeria","latitude":7.7038798332,"longitude":8.613940239,"coords":{"type":"Point","coordinates":[8.613940239,7.7038798332]}},{"airport":"Murtala Muhammed International Airport","3":"Lagos","country":"Nigeria","latitude":6.5773701668,"longitude":3.321160078,"coords":{"type":"Point","coordinates":[3.321160078,6.5773701668]}},{"airport":"Minna Airport","3":"Minna","country":"Nigeria","latitude":9.6521701813,"longitude":6.4622597694,"coords":{"type":"Point","coordinates":[6.4622597694,9.6521701813]}},{"airport":"Port Harcourt International Airport","3":"Port Hartcourt","country":"Nigeria","latitude":5.0154900551,"longitude":6.9495902061,"coords":{"type":"Point","coordinates":[6.9495902061,5.0154900551]}},{"airport":"Sadiq Abubakar III International Airport","3":"Sokoto","country":"Nigeria","latitude":12.9162998199,"longitude":5.2071900368,"coords":{"type":"Point","coordinates":[5.2071900368,12.9162998199]}},{"airport":"Yola Airport","3":"Yola","country":"Nigeria","latitude":9.2575502396,"longitude":12.4303998947,"coords":{"type":"Point","coordinates":[12.4303998947,9.2575502396]}},{"airport":"Zaria Airport","3":"Zaria","country":"Nigeria","latitude":11.130200386,"longitude":7.6858100891,"coords":{"type":"Point","coordinates":[7.6858100891,11.130200386]}},{"airport":"Maradi Airport","3":"Maradi","country":"Niger","latitude":13.5024995804,"longitude":7.1267499924,"coords":{"type":"Point","coordinates":[7.1267499924,13.5024995804]}},{"airport":"Diori Hamani International Airport","3":"Niamey","country":"Niger","latitude":13.4814996719,"longitude":2.1836099625,"coords":{"type":"Point","coordinates":[2.1836099625,13.4814996719]}},{"airport":"Tahoua Airport","3":"Tahoua","country":"Niger","latitude":14.8756999969,"longitude":5.2653598785,"coords":{"type":"Point","coordinates":[5.2653598785,14.8756999969]}},{"airport":"Mano Dayak International Airport","3":"Agadez","country":"Niger","latitude":16.9659996033,"longitude":8.0001096725,"coords":{"type":"Point","coordinates":[8.0001096725,16.9659996033]}},{"airport":"Dirkou Airport","3":"Dirkou","country":"Niger","latitude":18.9687004089,"longitude":12.8687000275,"coords":{"type":"Point","coordinates":[12.8687000275,18.9687004089]}},{"airport":"Diffa Airport","3":"Diffa","country":"Niger","latitude":13.3729000092,"longitude":12.6267004013,"coords":{"type":"Point","coordinates":[12.6267004013,13.3729000092]}},{"airport":"Zinder Airport","3":"Zinder","country":"Niger","latitude":13.7790002823,"longitude":8.9837598801,"coords":{"type":"Point","coordinates":[8.9837598801,13.7790002823]}},{"airport":"Monastir Habib Bourguiba International Airport","3":"Monastir","country":"Tunisia","latitude":35.7580986023,"longitude":10.754699707,"coords":{"type":"Point","coordinates":[10.754699707,35.7580986023]}},{"airport":"Tunis Carthage International Airport","3":"Tunis","country":"Tunisia","latitude":36.8510017395,"longitude":10.2271995544,"coords":{"type":"Point","coordinates":[10.2271995544,36.8510017395]}},{"airport":"Sidi Ahmed Air Base","3":"Bizerte","country":"Tunisia","latitude":37.2453994751,"longitude":9.7914495468,"coords":{"type":"Point","coordinates":[9.7914495468,37.2453994751]}},{"airport":"Remada Air Base","3":"Remada","country":"Tunisia","latitude":32.3061981201,"longitude":10.3821001053,"coords":{"type":"Point","coordinates":[10.3821001053,32.3061981201]}},{"airport":"Gafsa Ksar International Airport","3":"Gafsa","country":"Tunisia","latitude":34.422000885,"longitude":8.8225002289,"coords":{"type":"Point","coordinates":[8.8225002289,34.422000885]}},{"airport":"Gab\u00e8s Matmata International Airport","3":"Gabes","country":"Tunisia","latitude":33.8768997192,"longitude":10.1033000946,"coords":{"type":"Point","coordinates":[10.1033000946,33.8768997192]}},{"airport":"Borj El Amri Airport","3":"Bordj El Amri","country":"Tunisia","latitude":36.7212982178,"longitude":9.9431495667,"coords":{"type":"Point","coordinates":[9.9431495667,36.7212982178]}},{"airport":"Djerba Zarzis International Airport","3":"Djerba","country":"Tunisia","latitude":33.875,"longitude":10.7755002975,"coords":{"type":"Point","coordinates":[10.7755002975,33.875]}},{"airport":"El Borma Airport","3":"El Borma","country":"Tunisia","latitude":31.7042999268,"longitude":9.2546195984,"coords":{"type":"Point","coordinates":[9.2546195984,31.7042999268]}},{"airport":"Sfax Thyna International Airport","3":"Sfax","country":"Tunisia","latitude":34.7179985046,"longitude":10.6909999847,"coords":{"type":"Point","coordinates":[10.6909999847,34.7179985046]}},{"airport":"Tozeur Nefta International Airport","3":"Tozeur","country":"Tunisia","latitude":33.9397010803,"longitude":8.1105604172,"coords":{"type":"Point","coordinates":[8.1105604172,33.9397010803]}},{"airport":"Niamtougou International Airport","3":"Niatougou","country":"Togo","latitude":9.7673301697,"longitude":1.0912499428,"coords":{"type":"Point","coordinates":[1.0912499428,9.7673301697]}},{"airport":"Lom\u00e9-Tokoin Airport","3":"Lome","country":"Togo","latitude":6.1656098366,"longitude":1.2545100451,"coords":{"type":"Point","coordinates":[1.2545100451,6.1656098366]}},{"airport":"Antwerp International Airport (Deurne)","3":"Antwerp","country":"Belgium","latitude":51.1893997192,"longitude":4.4602799416,"coords":{"type":"Point","coordinates":[4.4602799416,51.1893997192]}},{"airport":"Beauvechain Air Base","3":"Beauvechain","country":"Belgium","latitude":50.7585983276,"longitude":4.7683300972,"coords":{"type":"Point","coordinates":[4.7683300972,50.7585983276]}},{"airport":"Kleine Brogel Air Base","3":"Kleine Brogel","country":"Belgium","latitude":51.168301,"longitude":5.47,"coords":{"type":"Point","coordinates":[5.47,51.168301]}},{"airport":"Brussels Airport","3":"Brussels","country":"Belgium","latitude":50.9014015198,"longitude":4.4844398499,"coords":{"type":"Point","coordinates":[4.4844398499,50.9014015198]}},{"airport":"Jehonville Air Base","3":"Bertrix","country":"Belgium","latitude":49.8917007446,"longitude":5.2238898277,"coords":{"type":"Point","coordinates":[5.2238898277,49.8917007446]}},{"airport":"Brussels South Charleroi Airport","3":"Charleroi","country":"Belgium","latitude":50.4592018127,"longitude":4.4538202286,"coords":{"type":"Point","coordinates":[4.4538202286,50.4592018127]}},{"airport":"Chi\u00e8vres Air Base","3":"Chievres","country":"Belgium","latitude":50.5758018494,"longitude":3.8310000896,"coords":{"type":"Point","coordinates":[3.8310000896,50.5758018494]}},{"airport":"Koksijde Air Base","3":"Koksijde","country":"Belgium","latitude":51.0903015137,"longitude":2.652780056,"coords":{"type":"Point","coordinates":[2.652780056,51.0903015137]}},{"airport":"Florennes Air Base","3":"Florennes","country":"Belgium","latitude":50.2433013916,"longitude":4.6458301544,"coords":{"type":"Point","coordinates":[4.6458301544,50.2433013916]}},{"airport":"Wevelgem Airport","3":"Kortrijk-vevelgem","country":"Belgium","latitude":50.817199707,"longitude":3.2047200203,"coords":{"type":"Point","coordinates":[3.2047200203,50.817199707]}},{"airport":"Li\u00e8ge Airport","3":"Liege","country":"Belgium","latitude":50.6374015808,"longitude":5.4432201385,"coords":{"type":"Point","coordinates":[5.4432201385,50.6374015808]}},{"airport":"Ostend-Bruges International Airport","3":"Ostend","country":"Belgium","latitude":51.1988983154,"longitude":2.8622200489,"coords":{"type":"Point","coordinates":[2.8622200489,51.1988983154]}},{"airport":"Zutendaal Air Base","3":"Zutendaal","country":"Belgium","latitude":50.9474983215,"longitude":5.5905599594,"coords":{"type":"Point","coordinates":[5.5905599594,50.9474983215]}},{"airport":"Limburg Regional Airport","3":"Sint-truiden","country":"Belgium","latitude":50.7919006348,"longitude":5.2016701698,"coords":{"type":"Point","coordinates":[5.2016701698,50.7919006348]}},{"airport":"Saint Hubert Air Base","3":"St.-hubert","country":"Belgium","latitude":50.0344009399,"longitude":5.4408102036,"coords":{"type":"Point","coordinates":[5.4408102036,50.0344009399]}},{"airport":"Ursel Air Base","3":"Ursel","country":"Belgium","latitude":51.1441993713,"longitude":3.4755599499,"coords":{"type":"Point","coordinates":[3.4755599499,51.1441993713]}},{"airport":"Weelde Air Base","3":"Weelde","country":"Belgium","latitude":51.3947982788,"longitude":4.9601898193,"coords":{"type":"Point","coordinates":[4.9601898193,51.3947982788]}},{"airport":"Oostmalle Air Base","3":"Zoersel","country":"Belgium","latitude":51.264702,"longitude":4.75333,"coords":{"type":"Point","coordinates":[4.75333,51.264702]}},{"airport":"Bautzen Airport","3":"Bautzen","country":"Germany","latitude":51.193611145,"longitude":14.5197219849,"coords":{"type":"Point","coordinates":[14.5197219849,51.193611145]}},{"airport":"Altenburg-Nobitz Airport","3":"Altenburg","country":"Germany","latitude":50.9819450378,"longitude":12.5063886642,"coords":{"type":"Point","coordinates":[12.5063886642,50.9819450378]}},{"airport":"Dessau Airport","3":"Dessau","country":"Germany","latitude":51.831693541,"longitude":12.1909618378,"coords":{"type":"Point","coordinates":[12.1909618378,51.831693541]}},{"airport":"Eisenh\u00fcttenstadt Airport","3":"Eisenhuettenstadt","country":"Germany","latitude":52.195856,"longitude":14.58753,"coords":{"type":"Point","coordinates":[14.58753,52.195856]}},{"airport":"Gro\u00dfenhain Airport","3":"Suhl","country":"Germany","latitude":51.3080558777,"longitude":13.5555562973,"coords":{"type":"Point","coordinates":[13.5555562973,51.3080558777]}},{"airport":"Merseburg Airport","3":"Muehlhausen","country":"Germany","latitude":51.3630556,"longitude":11.9408333,"coords":{"type":"Point","coordinates":[11.9408333,51.3630556]}},{"airport":"Halle-Oppin Airport","3":"Halle","country":"Germany","latitude":51.552223,"longitude":12.053889,"coords":{"type":"Point","coordinates":[12.053889,51.552223]}},{"airport":"Riesa-G\u00f6hlis Airport","3":"Riesa","country":"Germany","latitude":51.2936096191,"longitude":13.3561105728,"coords":{"type":"Point","coordinates":[13.3561105728,51.2936096191]}},{"airport":"Rechlin-L\u00e4rz Airport","3":"Rechlin-laerz","country":"Germany","latitude":53.306388855,"longitude":12.7522220612,"coords":{"type":"Point","coordinates":[12.7522220612,53.306388855]}},{"airport":"Strausberg Airport","3":"Strausberg","country":"Germany","latitude":52.5805549622,"longitude":13.9166669846,"coords":{"type":"Point","coordinates":[13.9166669846,52.5805549622]}},{"airport":"Sch\u00f6nhagen Airport","3":"Schoenhagen","country":"Germany","latitude":52.2036094666,"longitude":13.1563892365,"coords":{"type":"Point","coordinates":[13.1563892365,52.2036094666]}},{"airport":"Barth Airport","3":"Barth","country":"Germany","latitude":54.338253,"longitude":12.710515,"coords":{"type":"Point","coordinates":[12.710515,54.338253]}},{"airport":"Jena-Sch\u00f6ngleina Airport","3":"Jena","country":"Germany","latitude":50.9152793884,"longitude":11.7144441605,"coords":{"type":"Point","coordinates":[11.7144441605,50.9152793884]}},{"airport":"Kyritz Airport","3":"Kyritz","country":"Germany","latitude":52.918888092,"longitude":12.42527771,"coords":{"type":"Point","coordinates":[12.42527771,52.918888092]}},{"airport":"Magdeburg \\City\\\" Airport\"","3":"Magdeburg","country":"Germany","latitude":52.073612,"longitude":11.626389,"coords":{"type":"Point","coordinates":[11.626389,52.073612]}},{"airport":"Rothenburg\/G\u00f6rlitz Airport","3":"Rothenburg\/ol","country":"Germany","latitude":51.3633346558,"longitude":14.9499998093,"coords":{"type":"Point","coordinates":[14.9499998093,51.3633346558]}},{"airport":"Anklam Airport","3":"Anklam","country":"Germany","latitude":53.8327789307,"longitude":13.6686105728,"coords":{"type":"Point","coordinates":[13.6686105728,53.8327789307]}},{"airport":"Cottbus-Drewitz Airport","3":"Cottbus","country":"Germany","latitude":51.889442,"longitude":14.531944,"coords":{"type":"Point","coordinates":[14.531944,51.889442]}},{"airport":"Kamenz Airport","3":"Kamenz","country":"Germany","latitude":51.2969436646,"longitude":14.1274995804,"coords":{"type":"Point","coordinates":[14.1274995804,51.2969436646]}},{"airport":"Berlin-Sch\u00f6nefeld International Airport","3":"Berlin","country":"Germany","latitude":52.3800010681,"longitude":13.5225000381,"coords":{"type":"Point","coordinates":[13.5225000381,52.3800010681]}},{"airport":"Dresden Airport","3":"Dresden","country":"Germany","latitude":51.1328010559,"longitude":13.76720047,"coords":{"type":"Point","coordinates":[13.76720047,51.1328010559]}},{"airport":"Erfurt Airport","3":"Erfurt","country":"Germany","latitude":50.979801178,"longitude":10.9581003189,"coords":{"type":"Point","coordinates":[10.9581003189,50.979801178]}},{"airport":"Frankfurt am Main International Airport","3":"Frankfurt","country":"Germany","latitude":50.0333333,"longitude":8.5705556,"coords":{"type":"Point","coordinates":[8.5705556,50.0333333]}},{"airport":"M\u00fcnster Osnabr\u00fcck Airport","3":"Munster","country":"Germany","latitude":52.134601593,"longitude":7.6848301888,"coords":{"type":"Point","coordinates":[7.6848301888,52.134601593]}},{"airport":"Hamburg Airport","3":"Hamburg","country":"Germany","latitude":53.6304016113,"longitude":9.9882297516,"coords":{"type":"Point","coordinates":[9.9882297516,53.6304016113]}},{"airport":"Berlin-Tempelhof International Airport","3":"Berlin","country":"Germany","latitude":52.4729995728,"longitude":13.4039001465,"coords":{"type":"Point","coordinates":[13.4039001465,52.4729995728]}},{"airport":"Cologne Bonn Airport","3":"Cologne","country":"Germany","latitude":50.8658981323,"longitude":7.1427397728,"coords":{"type":"Point","coordinates":[7.1427397728,50.8658981323]}},{"airport":"D\u00fcsseldorf International Airport","3":"Duesseldorf","country":"Germany","latitude":51.2895011902,"longitude":6.7667798996,"coords":{"type":"Point","coordinates":[6.7667798996,51.2895011902]}},{"airport":"Munich International Airport","3":"Munich","country":"Germany","latitude":48.3538017273,"longitude":11.7861003876,"coords":{"type":"Point","coordinates":[11.7861003876,48.3538017273]}},{"airport":"Nuremberg Airport","3":"Nuernberg","country":"Germany","latitude":49.498699,"longitude":11.0780556,"coords":{"type":"Point","coordinates":[11.0780556,49.498699]}},{"airport":"Leipzig Halle Airport","3":"Leipzig","country":"Germany","latitude":51.4238889,"longitude":12.2363889,"coords":{"type":"Point","coordinates":[12.2363889,51.4238889]}},{"airport":"Saarbr\u00fccken Airport","3":"Saarbruecken","country":"Germany","latitude":49.2145996094,"longitude":7.1095099449,"coords":{"type":"Point","coordinates":[7.1095099449,49.2145996094]}},{"airport":"Stuttgart Airport","3":"Stuttgart","country":"Germany","latitude":48.6898994446,"longitude":9.2219600678,"coords":{"type":"Point","coordinates":[9.2219600678,48.6898994446]}},{"airport":"Berlin-Tegel International Airport","3":"Berlin","country":"Germany","latitude":52.5597000122,"longitude":13.2876996994,"coords":{"type":"Point","coordinates":[13.2876996994,52.5597000122]}},{"airport":"Hannover Airport","3":"Hannover","country":"Germany","latitude":52.461101532,"longitude":9.6850795746,"coords":{"type":"Point","coordinates":[9.6850795746,52.461101532]}},{"airport":"Bremen Airport","3":"Bremen","country":"Germany","latitude":53.0475006104,"longitude":8.7866697311,"coords":{"type":"Point","coordinates":[8.7866697311,53.0475006104]}},{"airport":"Frankfurt-Egelsbach Airport","3":"Egelsbach","country":"Germany","latitude":49.9599990845,"longitude":8.6458330154,"coords":{"type":"Point","coordinates":[8.6458330154,49.9599990845]}},{"airport":"Frankfurt-Hahn Airport","3":"Hahn","country":"Germany","latitude":49.9486999512,"longitude":7.2638897896,"coords":{"type":"Point","coordinates":[7.2638897896,49.9486999512]}},{"airport":"Mannheim-City Airport","3":"Mannheim","country":"Germany","latitude":49.4730567932,"longitude":8.514166832,"coords":{"type":"Point","coordinates":[8.514166832,49.4730567932]}},{"airport":"Allendorf\/Eder Airport","3":"Allendorf","country":"Germany","latitude":51.0349998474,"longitude":8.6808328629,"coords":{"type":"Point","coordinates":[8.6808328629,51.0349998474]}},{"airport":"Worms Airport","3":"Worms","country":"Germany","latitude":49.606945,"longitude":8.368333,"coords":{"type":"Point","coordinates":[8.368333,49.606945]}},{"airport":"Mainz-Finthen Airport","3":"Mainz","country":"Germany","latitude":49.967499,"longitude":8.147222,"coords":{"type":"Point","coordinates":[8.147222,49.967499]}},{"airport":"Eisenach-Kindel Airport","3":"Eisenach","country":"Germany","latitude":50.991604,"longitude":10.47973,"coords":{"type":"Point","coordinates":[10.47973,50.991604]}},{"airport":"Siegerland Airport","3":"Siegerland","country":"Germany","latitude":50.707698822,"longitude":8.0829696655,"coords":{"type":"Point","coordinates":[8.0829696655,50.707698822]}},{"airport":"Hamburg-Finkenwerder Airport","3":"Hamburg","country":"Germany","latitude":53.5352783203,"longitude":9.8355560303,"coords":{"type":"Point","coordinates":[9.8355560303,53.5352783203]}},{"airport":"Kiel-Holtenau Airport","3":"Kiel","country":"Germany","latitude":54.3794441223,"longitude":10.145277977,"coords":{"type":"Point","coordinates":[10.145277977,54.3794441223]}},{"airport":"L\u00fcbeck Blankensee Airport","3":"Luebeck","country":"Germany","latitude":53.8054008484,"longitude":10.7192001343,"coords":{"type":"Point","coordinates":[10.7192001343,53.8054008484]}},{"airport":"Flugplatz Dahlemer Binz","3":"Dahlemer Binz","country":"Germany","latitude":50.405555725,"longitude":6.5288891792,"coords":{"type":"Point","coordinates":[6.5288891792,50.405555725]}},{"airport":"Meinerzhagen Airport","3":"Meinerzhagen","country":"Germany","latitude":51.0999984741,"longitude":7.5999999046,"coords":{"type":"Point","coordinates":[7.5999999046,51.0999984741]}},{"airport":"Arnsberg-Menden Airport","3":"Arnsberg","country":"Germany","latitude":51.4838905334,"longitude":7.8983330727,"coords":{"type":"Point","coordinates":[7.8983330727,51.4838905334]}},{"airport":"Essen Mulheim Airport","3":"Essen","country":"Germany","latitude":51.4023017883,"longitude":6.9373297691,"coords":{"type":"Point","coordinates":[6.9373297691,51.4023017883]}},{"airport":"Bielefeld Airport","3":"Bielefeld","country":"Germany","latitude":51.9647216797,"longitude":8.5444440842,"coords":{"type":"Point","coordinates":[8.5444440842,51.9647216797]}},{"airport":"M\u00f6nchengladbach Airport","3":"Moenchengladbach","country":"Germany","latitude":51.2302780151,"longitude":6.5044441223,"coords":{"type":"Point","coordinates":[6.5044441223,51.2302780151]}},{"airport":"Paderborn Lippstadt Airport","3":"Paderborn","country":"Germany","latitude":51.6141014099,"longitude":8.6163196564,"coords":{"type":"Point","coordinates":[8.6163196564,51.6141014099]}},{"airport":"Stadtlohn-Vreden Airport","3":"Stadtlohn","country":"Germany","latitude":51.9958343506,"longitude":6.8405561447,"coords":{"type":"Point","coordinates":[6.8405561447,51.9958343506]}},{"airport":"Dortmund Airport","3":"Dortmund","country":"Germany","latitude":51.5182991028,"longitude":7.6122398376,"coords":{"type":"Point","coordinates":[7.6122398376,51.5182991028]}},{"airport":"Augsburg Airport","3":"Augsburg","country":"Germany","latitude":48.425278,"longitude":10.931667,"coords":{"type":"Point","coordinates":[10.931667,48.425278]}},{"airport":"Biberach a.d. Ri\u00df Airport","3":"Biberach","country":"Germany","latitude":48.1111106873,"longitude":9.7627782822,"coords":{"type":"Point","coordinates":[9.7627782822,48.1111106873]}},{"airport":"Eggenfelden Airport","3":"Eggenfelden","country":"Germany","latitude":48.3961105347,"longitude":12.723610878,"coords":{"type":"Point","coordinates":[12.723610878,48.3961105347]}},{"airport":"Mindelheim-Mattsies Airport","3":"Mindelheim","country":"Germany","latitude":48.1069450378,"longitude":10.5249996185,"coords":{"type":"Point","coordinates":[10.5249996185,48.1069450378]}},{"airport":"Oberpfaffenhofen Airport","3":"Oberpfaffenhofen","country":"Germany","latitude":48.081401825,"longitude":11.2831001282,"coords":{"type":"Point","coordinates":[11.2831001282,48.081401825]}},{"airport":"Straubing Airport","3":"Straubing","country":"Germany","latitude":48.9008331299,"longitude":12.516667366,"coords":{"type":"Point","coordinates":[12.516667366,48.9008331299]}},{"airport":"Vilshofen Airport","3":"Vilshofen","country":"Germany","latitude":48.6349983215,"longitude":13.195555687,"coords":{"type":"Point","coordinates":[13.195555687,48.6349983215]}},{"airport":"Leutkirch-Unterzeil Airport","3":"Leutkirch","country":"Germany","latitude":47.8588905334,"longitude":10.014166832,"coords":{"type":"Point","coordinates":[10.014166832,47.8588905334]}},{"airport":"Friedrichshafen Airport","3":"Friedrichshafen","country":"Germany","latitude":47.6712989807,"longitude":9.5114898682,"coords":{"type":"Point","coordinates":[9.5114898682,47.6712989807]}},{"airport":"Schwerin Parchim Airport","3":"Parchim","country":"Germany","latitude":53.426998,"longitude":11.7834,"coords":{"type":"Point","coordinates":[11.7834,53.426998]}},{"airport":"Stendal-Borstel Airport","3":"Stendal","country":"Germany","latitude":52.6288871765,"longitude":11.818611145,"coords":{"type":"Point","coordinates":[11.818611145,52.6288871765]}},{"airport":"Aalen-Heidenheim\/Elchingen Airport","3":"Aalen-heidenheim","country":"Germany","latitude":48.7777786255,"longitude":10.2647218704,"coords":{"type":"Point","coordinates":[10.2647218704,48.7777786255]}},{"airport":"Bayreuth Airport","3":"Bayreuth","country":"Germany","latitude":49.9850006104,"longitude":11.6400003433,"coords":{"type":"Point","coordinates":[11.6400003433,49.9850006104]}},{"airport":"Burg Feuerstein Airport","3":"Burg Feuerstein","country":"Germany","latitude":49.7941665649,"longitude":11.1336107254,"coords":{"type":"Point","coordinates":[11.1336107254,49.7941665649]}},{"airport":"Hof-Plauen Airport","3":"Hof","country":"Germany","latitude":50.2886123657,"longitude":11.8563890457,"coords":{"type":"Point","coordinates":[11.8563890457,50.2886123657]}},{"airport":"Ha\u00dffurt-Schweinfurt Airport","3":"Hassfurt","country":"Germany","latitude":50.0180549622,"longitude":10.5294437408,"coords":{"type":"Point","coordinates":[10.5294437408,50.0180549622]}},{"airport":"Koblenz-Winningen Airport","3":"Koblenz","country":"Germany","latitude":50.3255577087,"longitude":7.5286111832,"coords":{"type":"Point","coordinates":[7.5286111832,50.3255577087]}},{"airport":"Trier-F\u00f6hren Airport","3":"Trier","country":"Germany","latitude":49.8638877869,"longitude":6.7874999046,"coords":{"type":"Point","coordinates":[6.7874999046,49.8638877869]}},{"airport":"Speyer Airport","3":"Speyer","country":"Germany","latitude":49.3047218323,"longitude":8.4513893127,"coords":{"type":"Point","coordinates":[8.4513893127,49.3047218323]}},{"airport":"Zweibr\u00fccken Airport","3":"Zweibruecken","country":"Germany","latitude":49.209400177,"longitude":7.4005599022,"coords":{"type":"Point","coordinates":[7.4005599022,49.209400177]}},{"airport":"Donaueschingen-Villingen Airport","3":"Donaueschingen","country":"Germany","latitude":47.9733314514,"longitude":8.5222215652,"coords":{"type":"Point","coordinates":[8.5222215652,47.9733314514]}},{"airport":"Freiburg i. Br. Airport","3":"Freiburg","country":"Germany","latitude":48.0227775574,"longitude":7.8324999809,"coords":{"type":"Point","coordinates":[7.8324999809,48.0227775574]}},{"airport":"Mengen-Hohentengen Airport","3":"Mengen","country":"Germany","latitude":48.0538902283,"longitude":9.3727779388,"coords":{"type":"Point","coordinates":[9.3727779388,48.0538902283]}},{"airport":"Adolf W\u00fcrth Airport","3":"Schwaebisch Hall","country":"Germany","latitude":49.1183319092,"longitude":9.7838888168,"coords":{"type":"Point","coordinates":[9.7838888168,49.1183319092]}},{"airport":"Finsterwalde\/Schacksdorf Airport","3":"Soest","country":"Germany","latitude":51.607498,"longitude":13.743611,"coords":{"type":"Point","coordinates":[13.743611,51.607498]}},{"airport":"Braunschweig Wolfsburg Airport","3":"Braunschweig","country":"Germany","latitude":52.319199,"longitude":10.5561,"coords":{"type":"Point","coordinates":[10.5561,52.319199]}},{"airport":"Kassel-Calden Airport","3":"Kassel","country":"Germany","latitude":51.417273,"longitude":9.384967,"coords":{"type":"Point","coordinates":[9.384967,51.417273]}},{"airport":"Hildesheim Airport","3":"Hildesheim","country":"Germany","latitude":52.181388855,"longitude":9.9463891983,"coords":{"type":"Point","coordinates":[9.9463891983,52.181388855]}},{"airport":"Bremerhaven Airport","3":"Bremerhaven","country":"Germany","latitude":53.506943,"longitude":8.572778,"coords":{"type":"Point","coordinates":[8.572778,53.506943]}},{"airport":"Emden Airport","3":"Emden","country":"Germany","latitude":53.3911094666,"longitude":7.2274999619,"coords":{"type":"Point","coordinates":[7.2274999619,53.3911094666]}},{"airport":"Leer-Papenburg Airport","3":"Leer","country":"Germany","latitude":53.2719421387,"longitude":7.4416670799,"coords":{"type":"Point","coordinates":[7.4416670799,53.2719421387]}},{"airport":"Wilhelmshaven-Mariensiel Airport","3":"Wilhelmshaven","country":"Germany","latitude":53.5022201538,"longitude":8.0522222519,"coords":{"type":"Point","coordinates":[8.0522222519,53.5022201538]}},{"airport":"Borkum Airport","3":"Borkum","country":"Germany","latitude":53.5963897705,"longitude":6.7091670036,"coords":{"type":"Point","coordinates":[6.7091670036,53.5963897705]}},{"airport":"Norderney Airport","3":"Norderney","country":"Germany","latitude":53.706943512,"longitude":7.2300000191,"coords":{"type":"Point","coordinates":[7.2300000191,53.706943512]}},{"airport":"Flensburg-Sch\u00e4ferhaus Airport","3":"Flensburg","country":"Germany","latitude":54.7733345032,"longitude":9.3788890839,"coords":{"type":"Point","coordinates":[9.3788890839,54.7733345032]}},{"airport":"Rendsburg-Schachtholm Airport","3":"Rendsburg","country":"Germany","latitude":54.2200012207,"longitude":9.5994443893,"coords":{"type":"Point","coordinates":[9.5994443893,54.2200012207]}},{"airport":"Westerland Sylt Airport","3":"Westerland","country":"Germany","latitude":54.9132003784,"longitude":8.340470314,"coords":{"type":"Point","coordinates":[8.340470314,54.9132003784]}},{"airport":"\u00c4mari Air Base","3":"Armari Air Force Base","country":"Estonia","latitude":59.2602996826,"longitude":24.2084999084,"coords":{"type":"Point","coordinates":[24.2084999084,59.2602996826]}},{"airport":"K\u00e4rdla Airport","3":"Kardla","country":"Estonia","latitude":58.9907989502,"longitude":22.8306999207,"coords":{"type":"Point","coordinates":[22.8306999207,58.9907989502]}},{"airport":"Kuressaare Airport","3":"Kuressaare","country":"Estonia","latitude":58.2299003601,"longitude":22.5095005035,"coords":{"type":"Point","coordinates":[22.5095005035,58.2299003601]}},{"airport":"P\u00e4rnu Airport","3":"Parnu","country":"Estonia","latitude":58.4189987183,"longitude":24.4727993011,"coords":{"type":"Point","coordinates":[24.4727993011,58.4189987183]}},{"airport":"Lennart Meri Tallinn Airport","3":"Tallinn-ulemiste International","country":"Estonia","latitude":59.4132995605,"longitude":24.8327999115,"coords":{"type":"Point","coordinates":[24.8327999115,59.4132995605]}},{"airport":"Tartu Airport","3":"Tartu","country":"Estonia","latitude":58.3074989319,"longitude":26.6903991699,"coords":{"type":"Point","coordinates":[26.6903991699,58.3074989319]}},{"airport":"Enontekio Airport","3":"Enontekio","country":"Finland","latitude":68.3626022339,"longitude":23.4242992401,"coords":{"type":"Point","coordinates":[23.4242992401,68.3626022339]}},{"airport":"Eura Airport","3":"Eura","country":"Finland","latitude":61.1161003113,"longitude":22.2014007568,"coords":{"type":"Point","coordinates":[22.2014007568,61.1161003113]}},{"airport":"Halli Airport","3":"Halli","country":"Finland","latitude":61.856039,"longitude":24.786686,"coords":{"type":"Point","coordinates":[24.786686,61.856039]}},{"airport":"Helsinki Malmi Airport","3":"Helsinki","country":"Finland","latitude":60.2546005249,"longitude":25.0428009033,"coords":{"type":"Point","coordinates":[25.0428009033,60.2546005249]}},{"airport":"Helsinki Vantaa Airport","3":"Helsinki","country":"Finland","latitude":60.317199707,"longitude":24.963300705,"coords":{"type":"Point","coordinates":[24.963300705,60.317199707]}},{"airport":"Hameenkyro Airport","3":"Hameenkyro","country":"Finland","latitude":61.6897010803,"longitude":23.0736999512,"coords":{"type":"Point","coordinates":[23.0736999512,61.6897010803]}},{"airport":"Hanko Airport","3":"Hanko","country":"Finland","latitude":59.8488998413,"longitude":23.0835990906,"coords":{"type":"Point","coordinates":[23.0835990906,59.8488998413]}},{"airport":"Hyvink\u00e4\u00e4 Airfield","3":"Hyvinkaa","country":"Finland","latitude":60.6543998718,"longitude":24.8810997009,"coords":{"type":"Point","coordinates":[24.8810997009,60.6543998718]}},{"airport":"Kiikala Airport","3":"Kikala","country":"Finland","latitude":60.4625015259,"longitude":23.6525001526,"coords":{"type":"Point","coordinates":[23.6525001526,60.4625015259]}},{"airport":"Immola Airport","3":"Immola","country":"Finland","latitude":61.2491989136,"longitude":28.9036998749,"coords":{"type":"Point","coordinates":[28.9036998749,61.2491989136]}},{"airport":"Kitee Airport","3":"Kitee","country":"Finland","latitude":62.1661,"longitude":30.073601,"coords":{"type":"Point","coordinates":[30.073601,62.1661]}},{"airport":"Ivalo Airport","3":"Ivalo","country":"Finland","latitude":68.6072998047,"longitude":27.4053001404,"coords":{"type":"Point","coordinates":[27.4053001404,68.6072998047]}},{"airport":"Joensuu Airport","3":"Joensuu","country":"Finland","latitude":62.6628990173,"longitude":29.6075000763,"coords":{"type":"Point","coordinates":[29.6075000763,62.6628990173]}},{"airport":"Jyvaskyla Airport","3":"Jyvaskyla","country":"Finland","latitude":62.3995018005,"longitude":25.6783008575,"coords":{"type":"Point","coordinates":[25.6783008575,62.3995018005]}},{"airport":"Kauhava Airport","3":"Kauhava","country":"Finland","latitude":63.127102,"longitude":23.051399,"coords":{"type":"Point","coordinates":[23.051399,63.127102]}},{"airport":"Kemi-Tornio Airport","3":"Kemi","country":"Finland","latitude":65.7787017822,"longitude":24.5820999146,"coords":{"type":"Point","coordinates":[24.5820999146,65.7787017822]}},{"airport":"Kajaani Airport","3":"Kajaani","country":"Finland","latitude":64.2854995728,"longitude":27.6923999786,"coords":{"type":"Point","coordinates":[27.6923999786,64.2854995728]}},{"airport":"Kauhajoki Airport","3":"Kauhajoki","country":"Finland","latitude":62.4625015259,"longitude":22.3931007385,"coords":{"type":"Point","coordinates":[22.3931007385,62.4625015259]}},{"airport":"Kokkola-Pietarsaari Airport","3":"Kruunupyy","country":"Finland","latitude":63.7211990356,"longitude":23.1431007385,"coords":{"type":"Point","coordinates":[23.1431007385,63.7211990356]}},{"airport":"Kemijarvi Airport","3":"Kemijarvi","country":"Finland","latitude":66.712898,"longitude":27.156799,"coords":{"type":"Point","coordinates":[27.156799,66.712898]}},{"airport":"Kuusamo Airport","3":"Kuusamo","country":"Finland","latitude":65.9876022339,"longitude":29.2394008636,"coords":{"type":"Point","coordinates":[29.2394008636,65.9876022339]}},{"airport":"Kittil\u00e4 Airport","3":"Kittila","country":"Finland","latitude":67.7009963989,"longitude":24.8467998505,"coords":{"type":"Point","coordinates":[24.8467998505,67.7009963989]}},{"airport":"Kuopio Airport","3":"Kuopio","country":"Finland","latitude":63.0070991516,"longitude":27.7978000641,"coords":{"type":"Point","coordinates":[27.7978000641,63.0070991516]}},{"airport":"Lahti Vesivehmaa Airport","3":"Vesivehmaa","country":"Finland","latitude":61.144199,"longitude":25.693501,"coords":{"type":"Point","coordinates":[25.693501,61.144199]}},{"airport":"Lappeenranta Airport","3":"Lappeenranta","country":"Finland","latitude":61.044601,"longitude":28.144743,"coords":{"type":"Point","coordinates":[28.144743,61.044601]}},{"airport":"Mariehamn Airport","3":"Mariehamn","country":"Finland","latitude":60.1222000122,"longitude":19.8981990814,"coords":{"type":"Point","coordinates":[19.8981990814,60.1222000122]}},{"airport":"Menkijarvi Airport","3":"Menkijarvi","country":"Finland","latitude":62.9467010498,"longitude":23.5188999176,"coords":{"type":"Point","coordinates":[23.5188999176,62.9467010498]}},{"airport":"Mikkeli Airport","3":"Mikkeli","country":"Finland","latitude":61.6866,"longitude":27.201799,"coords":{"type":"Point","coordinates":[27.201799,61.6866]}},{"airport":"Nummela Airport","3":"Nummela","country":"Finland","latitude":60.3339004517,"longitude":24.2964000702,"coords":{"type":"Point","coordinates":[24.2964000702,60.3339004517]}},{"airport":"Oulu Airport","3":"Oulu","country":"Finland","latitude":64.9300994873,"longitude":25.3546009064,"coords":{"type":"Point","coordinates":[25.3546009064,64.9300994873]}},{"airport":"Piikajarvi Airport","3":"Piikajarvi","country":"Finland","latitude":61.2456016541,"longitude":22.1933994293,"coords":{"type":"Point","coordinates":[22.1933994293,61.2456016541]}},{"airport":"Pori Airport","3":"Pori","country":"Finland","latitude":61.4617004395,"longitude":21.7999992371,"coords":{"type":"Point","coordinates":[21.7999992371,61.4617004395]}},{"airport":"Pudasj\u00e4rvi Airport","3":"Pudasjarvi","country":"Finland","latitude":65.4021987915,"longitude":26.9468994141,"coords":{"type":"Point","coordinates":[26.9468994141,65.4021987915]}},{"airport":"Pyh\u00e4salmi Airport","3":"Pyhasalmi","country":"Finland","latitude":63.7318992615,"longitude":25.9263000488,"coords":{"type":"Point","coordinates":[25.9263000488,63.7318992615]}},{"airport":"Raahe Pattijoki Airport","3":"Pattijoki","country":"Finland","latitude":64.6881027222,"longitude":24.6958007812,"coords":{"type":"Point","coordinates":[24.6958007812,64.6881027222]}},{"airport":"Rantasalmi Airport","3":"Rantasalmi","country":"Finland","latitude":62.0654983521,"longitude":28.3565006256,"coords":{"type":"Point","coordinates":[28.3565006256,62.0654983521]}},{"airport":"Rovaniemi Airport","3":"Rovaniemi","country":"Finland","latitude":66.5647964478,"longitude":25.8304004669,"coords":{"type":"Point","coordinates":[25.8304004669,66.5647964478]}},{"airport":"Rayskala Airport","3":"Rayskala","country":"Finland","latitude":60.7447013855,"longitude":24.10779953,"coords":{"type":"Point","coordinates":[24.10779953,60.7447013855]}},{"airport":"Savonlinna Airport","3":"Savonlinna","country":"Finland","latitude":61.9430999756,"longitude":28.9451007843,"coords":{"type":"Point","coordinates":[28.9451007843,61.9430999756]}},{"airport":"Selanpaa Airport","3":"Selanpaa","country":"Finland","latitude":61.0624008179,"longitude":26.7989006042,"coords":{"type":"Point","coordinates":[26.7989006042,61.0624008179]}},{"airport":"Sodankyla Airport","3":"Sodankyla","country":"Finland","latitude":67.3949966431,"longitude":26.6191005707,"coords":{"type":"Point","coordinates":[26.6191005707,67.3949966431]}},{"airport":"Tampere-Pirkkala Airport","3":"Tampere","country":"Finland","latitude":61.414100647,"longitude":23.6044006348,"coords":{"type":"Point","coordinates":[23.6044006348,61.414100647]}},{"airport":"Teisko Airport","3":"Teisko","country":"Finland","latitude":61.7733,"longitude":24.027,"coords":{"type":"Point","coordinates":[24.027,61.7733]}},{"airport":"Turku Airport","3":"Turku","country":"Finland","latitude":60.5140991211,"longitude":22.2628002167,"coords":{"type":"Point","coordinates":[22.2628002167,60.5140991211]}},{"airport":"Utti Air Base","3":"Utti","country":"Finland","latitude":60.8964004517,"longitude":26.9384002686,"coords":{"type":"Point","coordinates":[26.9384002686,60.8964004517]}},{"airport":"Vaasa Airport","3":"Vaasa","country":"Finland","latitude":63.0507011414,"longitude":21.7621994019,"coords":{"type":"Point","coordinates":[21.7621994019,63.0507011414]}},{"airport":"Varkaus Airport","3":"Varkaus","country":"Finland","latitude":62.1711006165,"longitude":27.8686008453,"coords":{"type":"Point","coordinates":[27.8686008453,62.1711006165]}},{"airport":"Ylivieska Airfield","3":"Ylivieska-raudaskyla","country":"Finland","latitude":64.0547222,"longitude":24.7252778,"coords":{"type":"Point","coordinates":[24.7252778,64.0547222]}},{"airport":"Belfast International Airport","3":"Belfast","country":"United Kingdom","latitude":54.6575012207,"longitude":-6.2158298492,"coords":{"type":"Point","coordinates":[-6.2158298492,54.6575012207]}},{"airport":"St Angelo Airport","3":"Enniskillen","country":"United Kingdom","latitude":54.3988990784,"longitude":-7.6516699791,"coords":{"type":"Point","coordinates":[-7.6516699791,54.3988990784]}},{"airport":"George Best Belfast City Airport","3":"Belfast","country":"United Kingdom","latitude":54.6180992126,"longitude":-5.8724999428,"coords":{"type":"Point","coordinates":[-5.8724999428,54.6180992126]}},{"airport":"City of Derry Airport","3":"Londonderry","country":"United Kingdom","latitude":55.0428009033,"longitude":-7.1611099243,"coords":{"type":"Point","coordinates":[-7.1611099243,55.0428009033]}},{"airport":"Birmingham International Airport","3":"Birmingham","country":"United Kingdom","latitude":52.4538993835,"longitude":-1.7480299473,"coords":{"type":"Point","coordinates":[-1.7480299473,52.4538993835]}},{"airport":"Coventry Airport","3":"Coventry","country":"United Kingdom","latitude":52.3697013855,"longitude":-1.4797199965,"coords":{"type":"Point","coordinates":[-1.4797199965,52.3697013855]}},{"airport":"Leicester Airport","3":"Leicester","country":"United Kingdom","latitude":52.60779953,"longitude":-1.0319399834,"coords":{"type":"Point","coordinates":[-1.0319399834,52.60779953]}},{"airport":"Gloucestershire Airport","3":"Golouchestershire","country":"United Kingdom","latitude":51.8941993713,"longitude":-2.1672201157,"coords":{"type":"Point","coordinates":[-2.1672201157,51.8941993713]}},{"airport":"Wolverhampton Halfpenny Green Airport","3":"Halfpenny Green","country":"United Kingdom","latitude":52.5175018311,"longitude":-2.2594399452,"coords":{"type":"Point","coordinates":[-2.2594399452,52.5175018311]}},{"airport":"Cotswold Airport","3":"Pailton","country":"United Kingdom","latitude":51.668095,"longitude":-2.05694,"coords":{"type":"Point","coordinates":[-2.05694,51.668095]}},{"airport":"Turweston Airport","3":"Turweston","country":"United Kingdom","latitude":52.0407981873,"longitude":-1.0955599546,"coords":{"type":"Point","coordinates":[-1.0955599546,52.0407981873]}},{"airport":"Wellesbourne Mountford Airport","3":"Wellesbourne","country":"United Kingdom","latitude":52.192199707,"longitude":-1.6144399643,"coords":{"type":"Point","coordinates":[-1.6144399643,52.192199707]}},{"airport":"Manchester Airport","3":"Manchester","country":"United Kingdom","latitude":53.3536987305,"longitude":-2.2749500275,"coords":{"type":"Point","coordinates":[-2.2749500275,53.3536987305]}},{"airport":"Manchester Woodford Airport","3":"Woodfort","country":"United Kingdom","latitude":53.3381,"longitude":-2.14889,"coords":{"type":"Point","coordinates":[-2.14889,53.3381]}},{"airport":"Royal Marines Base Chivenor Airport","3":"Chivenor","country":"United Kingdom","latitude":51.0872001648,"longitude":-4.1503400803,"coords":{"type":"Point","coordinates":[-4.1503400803,51.0872001648]}},{"airport":"Newquay Cornwall Airport","3":"Newquai","country":"United Kingdom","latitude":50.4406013489,"longitude":-4.9954099655,"coords":{"type":"Point","coordinates":[-4.9954099655,50.4406013489]}},{"airport":"RAF Lyneham","3":"Lyneham","country":"United Kingdom","latitude":51.5051,"longitude":-1.99343,"coords":{"type":"Point","coordinates":[-1.99343,51.5051]}},{"airport":"MoD Boscombe Down Airport","3":"Boscombe Down","country":"United Kingdom","latitude":51.1521987915,"longitude":-1.747410059,"coords":{"type":"Point","coordinates":[-1.747410059,51.1521987915]}},{"airport":"RNAS Culdrose","3":"Culdrose","country":"United Kingdom","latitude":50.086101532,"longitude":-5.255710125,"coords":{"type":"Point","coordinates":[-5.255710125,50.086101532]}},{"airport":"MOD St. Athan","3":"St. Athan","country":"United Kingdom","latitude":51.404800415,"longitude":-3.4357500076,"coords":{"type":"Point","coordinates":[-3.4357500076,51.404800415]}},{"airport":"RNAS Yeovilton","3":"Yeovilton","country":"United Kingdom","latitude":51.0093994141,"longitude":-2.6388199329,"coords":{"type":"Point","coordinates":[-2.6388199329,51.0093994141]}},{"airport":"Haverfordwest Airport","3":"Haverfordwest","country":"United Kingdom","latitude":51.8330993652,"longitude":-4.9611101151,"coords":{"type":"Point","coordinates":[-4.9611101151,51.8330993652]}},{"airport":"Cardiff International Airport","3":"Cardiff","country":"United Kingdom","latitude":51.3967018127,"longitude":-3.3433299065,"coords":{"type":"Point","coordinates":[-3.3433299065,51.3967018127]}},{"airport":"Swansea Airport","3":"Swansea","country":"United Kingdom","latitude":51.6053009033,"longitude":-4.0678300858,"coords":{"type":"Point","coordinates":[-4.0678300858,51.6053009033]}},{"airport":"Bristol Airport","3":"Bristol","country":"United Kingdom","latitude":51.382702,"longitude":-2.71909,"coords":{"type":"Point","coordinates":[-2.71909,51.382702]}},{"airport":"Liverpool John Lennon Airport","3":"Liverpool","country":"United Kingdom","latitude":53.3335990906,"longitude":-2.8497200012,"coords":{"type":"Point","coordinates":[-2.8497200012,53.3335990906]}},{"airport":"London Luton Airport","3":"London","country":"United Kingdom","latitude":51.8746986389,"longitude":-0.3683330119,"coords":{"type":"Point","coordinates":[-0.3683330119,51.8746986389]}},{"airport":"Plymouth City Airport","3":"Plymouth","country":"United Kingdom","latitude":50.422798,"longitude":-4.10583,"coords":{"type":"Point","coordinates":[-4.10583,50.422798]}},{"airport":"Bournemouth Airport","3":"Bournemouth","country":"United Kingdom","latitude":50.7799987793,"longitude":-1.8424999714,"coords":{"type":"Point","coordinates":[-1.8424999714,50.7799987793]}},{"airport":"Southampton Airport","3":"Southampton","country":"United Kingdom","latitude":50.9502983093,"longitude":-1.3567999601,"coords":{"type":"Point","coordinates":[-1.3567999601,50.9502983093]}},{"airport":"Lasham Airport","3":"Lasham","country":"United Kingdom","latitude":51.1871986389,"longitude":-1.0334999561,"coords":{"type":"Point","coordinates":[-1.0334999561,51.1871986389]}},{"airport":"Alderney Airport","3":"Alderney","country":"Guernsey","latitude":49.7061004639,"longitude":-2.2147200108,"coords":{"type":"Point","coordinates":[-2.2147200108,49.7061004639]}},{"airport":"Guernsey Airport","3":"Guernsey","country":"Guernsey","latitude":49.4350013733,"longitude":-2.6019699574,"coords":{"type":"Point","coordinates":[-2.6019699574,49.4350013733]}},{"airport":"Jersey Airport","3":"Jersey","country":"Jersey","latitude":49.207901001,"longitude":-2.1955099106,"coords":{"type":"Point","coordinates":[-2.1955099106,49.207901001]}},{"airport":"Shoreham Airport","3":"Shoreham By Sea","country":"United Kingdom","latitude":50.8356018066,"longitude":-0.2972219884,"coords":{"type":"Point","coordinates":[-0.2972219884,50.8356018066]}},{"airport":"London Biggin Hill Airport","3":"Biggin Hill","country":"United Kingdom","latitude":51.3307991028,"longitude":0.0324999988,"coords":{"type":"Point","coordinates":[0.0324999988,51.3307991028]}},{"airport":"London Gatwick Airport","3":"London","country":"United Kingdom","latitude":51.1481018066,"longitude":-0.1902779937,"coords":{"type":"Point","coordinates":[-0.1902779937,51.1481018066]}},{"airport":"London City Airport","3":"London","country":"United Kingdom","latitude":51.505299,"longitude":0.055278,"coords":{"type":"Point","coordinates":[0.055278,51.505299]}},{"airport":"Farnborough Airport","3":"Farnborough","country":"United Kingdom","latitude":51.2757987976,"longitude":-0.7763329744,"coords":{"type":"Point","coordinates":[-0.7763329744,51.2757987976]}},{"airport":"Chalgrove Airport","3":"Chalsgrove","country":"United Kingdom","latitude":51.6761016846,"longitude":-1.080829978,"coords":{"type":"Point","coordinates":[-1.080829978,51.6761016846]}},{"airport":"Blackbushe Airport","3":"Blackbushe","country":"United Kingdom","latitude":51.3238983154,"longitude":-0.8475000262,"coords":{"type":"Point","coordinates":[-0.8475000262,51.3238983154]}},{"airport":"London Heathrow Airport","3":"London","country":"United Kingdom","latitude":51.4706,"longitude":-0.461941,"coords":{"type":"Point","coordinates":[-0.461941,51.4706]}},{"airport":"Southend Airport","3":"Southend","country":"United Kingdom","latitude":51.5713996887,"longitude":0.695555985,"coords":{"type":"Point","coordinates":[0.695555985,51.5713996887]}},{"airport":"Lydd Airport","3":"Lydd","country":"United Kingdom","latitude":50.9561004639,"longitude":0.9391670227,"coords":{"type":"Point","coordinates":[0.9391670227,50.9561004639]}},{"airport":"Kent International Airport","3":"Manston","country":"United Kingdom","latitude":51.342201,"longitude":1.34611,"coords":{"type":"Point","coordinates":[1.34611,51.342201]}},{"airport":"Brough Airport","3":"Brough","country":"United Kingdom","latitude":53.7197,"longitude":-0.566333,"coords":{"type":"Point","coordinates":[-0.566333,53.7197]}},{"airport":"Carlisle Airport","3":"Carlisle","country":"United Kingdom","latitude":54.9375,"longitude":-2.8091700077,"coords":{"type":"Point","coordinates":[-2.8091700077,54.9375]}},{"airport":"Retford Gamston Airport","3":"Repton","country":"United Kingdom","latitude":53.2806015015,"longitude":-0.9513890147,"coords":{"type":"Point","coordinates":[-0.9513890147,53.2806015015]}},{"airport":"Blackpool International Airport","3":"Blackpool","country":"United Kingdom","latitude":53.7717018127,"longitude":-3.0286099911,"coords":{"type":"Point","coordinates":[-3.0286099911,53.7717018127]}},{"airport":"Humberside Airport","3":"Humberside","country":"United Kingdom","latitude":53.5744018555,"longitude":-0.3508329988,"coords":{"type":"Point","coordinates":[-0.3508329988,53.5744018555]}},{"airport":"Barrow Walney Island Airport","3":"Barrow Island","country":"United Kingdom","latitude":54.1286111,"longitude":-3.2675,"coords":{"type":"Point","coordinates":[-3.2675,54.1286111]}},{"airport":"Leeds Bradford Airport","3":"Leeds","country":"United Kingdom","latitude":53.8658981323,"longitude":-1.6605700254,"coords":{"type":"Point","coordinates":[-1.6605700254,53.8658981323]}},{"airport":"Warton Airport","3":"Warton","country":"United Kingdom","latitude":53.745098114,"longitude":-2.8830599785,"coords":{"type":"Point","coordinates":[-2.8830599785,53.745098114]}},{"airport":"Hawarden Airport","3":"Hawarden","country":"United Kingdom","latitude":53.1781005859,"longitude":-2.9777801037,"coords":{"type":"Point","coordinates":[-2.9777801037,53.1781005859]}},{"airport":"Isle of Man Airport","3":"Isle Of Man","country":"Isle of Man","latitude":54.0833015442,"longitude":-4.6238899231,"coords":{"type":"Point","coordinates":[-4.6238899231,54.0833015442]}},{"airport":"Newcastle Airport","3":"Newcastle","country":"United Kingdom","latitude":55.0374984741,"longitude":-1.6916699409,"coords":{"type":"Point","coordinates":[-1.6916699409,55.0374984741]}},{"airport":"Durham Tees Valley Airport","3":"Teesside","country":"United Kingdom","latitude":54.5092010498,"longitude":-1.4294099808,"coords":{"type":"Point","coordinates":[-1.4294099808,54.5092010498]}},{"airport":"East Midlands Airport","3":"East Midlands","country":"United Kingdom","latitude":52.8311004639,"longitude":-1.3280600309,"coords":{"type":"Point","coordinates":[-1.3280600309,52.8311004639]}},{"airport":"Llanbedr Airport","3":"Llanbedr","country":"United Kingdom","latitude":52.8116989136,"longitude":-4.1235799789,"coords":{"type":"Point","coordinates":[-4.1235799789,52.8116989136]}},