{"meta":{"code":200,"requestId":"5dd18285dff8e6001bd56303"},"response":{"venues":[{"id":"4b74645ef964a520a4d92de3","name":"Quattro","location":{"address":"2050 University Ave","crossStreet":"at Manhattan Ave","lat":37.459869371453884,"lng":-122.14221321432686,"labeledLatLngs":[{"label":"display","lat":37.459869371453884,"lng":-122.14221321432686}],"distance":59,"postalCode":"94303","cc":"US","city":"East Palo Alto","state":"CA","country":"Estados Unidos","formattedAddress":["2050 University Ave (at Manhattan Ave)","East Palo Alto, CA 94303","Estados Unidos"]},"categories":[{"id":"4bf58dd8d48988d110941735","name":"Restaurante italiano","pluralName":"Restaurantes italianos","shortName":"Italiana","icon":{"prefix":"https:\/\/ss3.4sqi.net\/img\/categories_v2\/food\/italian_","suffix":".png"},"primary":true}],"hierarchy":[],"referralId":"v-1574011531","hasPerk":false},{"id":"4a1dfd2df964a520b47b1fe3","name":"Four Seasons Hotel Silicon Valley","location":{"address":"2050 University Ave","lat":37.46023550185142,"lng":-122.14233638456157,"labeledLatLngs":[{"label":"display","lat":37.46023550185142,"lng":-122.14233638456157}],"distance":68,"postalCode":"94303","cc":"US","city":"East Palo Alto","state":"CA","country":"Estados Unidos","formattedAddress":["2050 University Ave","East Palo Alto, CA 94303","Estados Unidos"]},"categories":[{"id":"4bf58dd8d48988d1fa931735","name":"Hotel","pluralName":"Hoteles","shortName":"Hotel","icon":{"prefix":"https:\/\/ss3.4sqi.net\/img\/categories_v2\/travel\/hotel_","suffix":".png"},"primary":true}],"referralId":"v-1574011531","hasPerk":false},{"id":"4b9ebec7f964a52087fe36e3","name":"2000 University Circle","location":{"address":"2000 University Ave","crossStreet":"Manhattan Ave","lat":37.4601339591993,"lng":-122.14238305759044,"labeledLatLngs":[{"label":"display","lat":37.4601339591993,"lng":-122.14238305759044}],"distance":57,"postalCode":"94303","cc":"US","city":"East Palo Alto","state":"CA","country":"Estados Unidos","formattedAddress":["2000 University Ave (Manhattan Ave)","East Palo Alto, CA 94303","Estados Unidos"]},"categories":[{"id":"4bf58dd8d48988d124941735","name":"Oficina","pluralName":"Oficinas","shortName":"Oficina","icon":{"prefix":"https:\/\/ss3.4sqi.net\/img\/categories_v2\/building\/default_","suffix":".png"},"primary":true}],"referralId":"v-1574011531","hasPerk":false},{"id":"4a723d14f964a520b3da1fe3","name":"DLA Piper","location":{"address":"2000 University Ave","crossStreet":"at Manhattan Ave","lat":37.45996650843233,"lng":-122.14247060220985,"labeledLatLngs":[{"label":"display","lat":37.45996650843233,"lng":-122.14247060220985}],"distance":40,"postalCode":"94303","cc":"US","city":"East Palo Alto","state":"CA","country":"Estados Unidos","formattedAddress":["2000 University Ave (at Manhattan Ave)","East Palo Alto, CA 94303","Estados Unidos"]},"categories":[{"id":"4bf58dd8d48988d124941735","name":"Oficina","pluralName":"Oficinas","shortName":"Oficina","icon":{"prefix":"https:\/\/ss3.4sqi.net\/img\/categories_v2\/building\/default_","suffix":".png"},"primary":true}],"referralId":"v-1574011531","hasPerk":false},{"id":"58eb6e8a04aa4f12b35654d8","name":"[esc]","location":{"address":"2050 University Ave","lat":37.46038182404092,"lng":-122.14216589927672,"labeledLatLngs":[{"label":"display","lat":37.46038182404092,"lng":-122.14216589927672}],"distance":90,"postalCode":"94303","cc":"US","city":"East Palo Alto","state":"CA","country":"Estados Unidos","formattedAddress":["2050 University Ave","East Palo Alto, CA 94303","Estados Unidos"]},"categories":[{"id":"4bf58dd8d48988d1c4941735","name":"Restaurante","pluralName":"Restaurantes","shortName":"Restaurante","icon":{"prefix":"https:\/\/ss3.4sqi.net\/img\/categories_v2\/food\/default_","suffix":".png"},"primary":true}],"hierarchy":[],"referralId":"v-1574011531","hasPerk":false},{"id":"50a4dc3ae4b01d68ab2203e3","name":"Fitness Center","location":{"address":"Four Seasons Hotel Silicon Valley","crossStreet":"2050 University Ave","lat":37.46031909868995,"lng":-122.1421271551901,"labeledLatLngs":[{"label":"display","lat":37.46031909868995,"lng":-122.1421271551901}],"distance":88,"postalCode":"94303","cc":"US","city":"Palo Alto","state":"CA","country":"Estados Unidos","formattedAddress":["Four Seasons Hotel Silicon Valley (2050 University Ave)","Palo Alto, CA 94303","Estados Unidos"]},"categories":[{"id":"4bf58dd8d48988d176941735","name":"Gimnasio","pluralName":"Gimnasios","shortName":"Gimnasio","icon":{"prefix":"https:\/\/ss3.4sqi.net\/img\/categories_v2\/building\/gym_","suffix":".png"},"primary":true}],"hierarchy":[],"referralId":"v-1574011531","hasPerk":false},{"id":"4b75ad4af964a520491c2ee3","name":"Bozicevic, Field, and Francis LLP","location":{"lat":37.458915005394076,"lng":-122.14256243843997,"labeledLatLngs":[{"label":"display","lat":37.458915005394076,"lng":-122.14256243843997}],"distance":103,"postalCode":"94303","cc":"US","city":"Palo Alto","state":"CA","country":"Estados Unidos","formattedAddress":["Palo Alto, CA 94303","Estados Unidos"]},"categories":[{"id":"4bf58dd8d48988d124941735","name":"Oficina","pluralName":"Oficinas","shortName":"Oficina","icon":{"prefix":"https:\/\/ss3.4sqi.net\/img\/categories_v2\/building\/default_","suffix":".png"},"primary":true}],"referralId":"v-1574011531","hasPerk":false},{"id":"4bc37846abf4952116cfc393","name":"Just Lunch","location":{"address":"1950 University Ave Ste 100","lat":37.45917045345299,"lng":-122.14223528306452,"labeledLatLngs":[{"label":"display","lat":37.45917045345299,"lng":-122.14223528306452}],"distance":91,"postalCode":"94303","cc":"US","city":"East Palo Alto","state":"CA","country":"Estados Unidos","formattedAddress":["1950 University Ave Ste 100","East Palo Alto, CA 94303","Estados Unidos"]},"categories":[{"id":"4bf58dd8d48988d14e941735","name":"Restaurante americano","pluralName":"Restaurantes americanos","shortName":"Americana","icon":{"prefix":"https:\/\/ss3.4sqi.net\/img\/categories_v2\/food\/default_","suffix":".png"},"primary":true}],"referralId":"v-1574011531","hasPerk":false},{"id":"4bb3e2109af3b71340b18b28","name":"Artiman Ventures","location":{"address":"2000 University Ave","lat":37.45948299637192,"lng":-122.14219092293716,"labeledLatLngs":[{"label":"display","lat":37.45948299637192,"lng":-122.14219092293716}],"distance":71,"postalCode":"94303","cc":"US","city":"East Palo Alto","state":"CA","country":"Estados Unidos","formattedAddress":["2000 University Ave","East Palo Alto, CA 94303","Estados Unidos"]},"categories":[{"id":"4bf58dd8d48988d124941735","name":"Oficina","pluralName":"Oficinas","shortName":"Oficina","icon":{"prefix":"https:\/\/ss3.4sqi.net\/img\/categories_v2\/building\/default_","suffix":".png"},"primary":true}],"referralId":"v-1574011531","hasPerk":false},{"id":"4e57dc4aaeb7eff130d1dd58","name":"Glen Way & E. Bayshore Rd.","location":{"lat":37.46358946301009,"lng":-122.14190258166455,"labeledLatLngs":[{"label":"display","lat":37.46358946301009,"lng":-122.14190258166455}],"distance":430,"cc":"US","city":"East Palo Alto","state":"CA","country":"Estados Unidos","formattedAddress":["East Palo Alto, CA","Estados Unidos"]},"categories":[{"id":"52f2ab2ebcbc57f1066b8b4c","name":"Intersección","pluralName":"Intersecciones","shortName":"Intersección","icon":{"prefix":"https:\/\/ss3.4sqi.net\/img\/categories_v2\/travel\/default_","suffix":".png"},"primary":true}],"referralId":"v-1574011531","hasPerk":false},{"id":"4dfa9b21ae60c9cdd3874420","name":"Google Shuttle to Noe Valley","location":{"address":"Bayshore Fwy","lat":37.460061126042184,"lng":-122.13859214680905,"labeledLatLngs":[{"label":"display","lat":37.460061126042184,"lng":-122.13859214680905}],"distance":380,"postalCode":"94303","cc":"US","city":"Palo Alto","state":"CA","country":"Estados Unidos","formattedAddress":["Bayshore Fwy","Palo Alto, CA 94303","Estados Unidos"]},"categories":[{"id":"4bf58dd8d48988d12b951735","name":"Línea de autobús","pluralName":"Líneas de autobuses","shortName":"Autobús","icon":{"prefix":"https:\/\/ss3.4sqi.net\/img\/categories_v2\/travel\/busstation_","suffix":".png"},"primary":true}],"referralId":"v-1574011531","hasPerk":false},{"id":"51d74d62498ec748230ee885","name":"Four Seasons Pool","location":{"address":"Four Seasons Hotel Silicon Valley","crossStreet":"2050 University Ave","lat":37.460008175188634,"lng":-122.14165993681789,"labeledLatLngs":[{"label":"display","lat":37.460008175188634,"lng":-122.14165993681789}],"distance":110,"cc":"US","city":"East Palo Alto","state":"CA","country":"Estados Unidos","formattedAddress":["Four Seasons Hotel Silicon Valley (2050 University Ave)","East Palo Alto, CA","Estados Unidos"]},"categories":[{"id":"4bf58dd8d48988d132951735","name":"Piscina del hotel","pluralName":"Piscinas del hotel","shortName":"Piscina","icon":{"prefix":"https:\/\/ss3.4sqi.net\/img\/categories_v2\/parks_outdoors\/pool_","suffix":".png"},"primary":true}],"hierarchy":[],"referralId":"v-1574011531","hasPerk":false},{"id":"4c34a7a07cc0c9b6c9a9f39a","name":"California Sleep Institute","location":{"address":"1900 Univeristy Ave","lat":37.458648,"lng":-122.142715,"labeledLatLngs":[{"label":"display","lat":37.458648,"lng":-122.142715}],"distance":129,"cc":"US","city":"East Palo Alto","state":"CA","country":"Estados Unidos","formattedAddress":["1900 Univeristy Ave","East Palo Alto, CA","Estados Unidos"]},"categories":[{"id":"4bf58dd8d48988d177941735","name":"Consultorio médico","pluralName":"Consultorios médicos","shortName":"Consultorio médico","icon":{"prefix":"https:\/\/ss3.4sqi.net\/img\/categories_v2\/building\/medical_doctorsoffice_","suffix":".png"},"primary":true}],"referralId":"v-1574011531","hasPerk":false},{"id":"52fa798911d2725220da7a4b","name":"Amazon SJC15 Corp Office","location":{"address":"1900 University Ave","lat":37.45907307601833,"lng":-122.14309952975556,"labeledLatLngs":[{"label":"display","lat":37.45907307601833,"lng":-122.14309952975556}],"distance":83,"postalCode":"94303","cc":"US","city":"East Palo Alto","state":"CA","country":"Estados Unidos","formattedAddress":["1900 University Ave","East Palo Alto, CA 94303","Estados Unidos"]},"categories":[{"id":"4bf58dd8d48988d130941735","name":"Edificio","pluralName":"Edificios","shortName":"Edificio","icon":{"prefix":"https:\/\/ss3.4sqi.net\/img\/categories_v2\/building\/default_","suffix":".png"},"primary":true}],"referralId":"v-1574011531","hasPerk":false},{"id":"4b845285f964a520aa2e31e3","name":"California Ear Institute","location":{"address":"1900 University Ave Ste 101","lat":37.45863883712677,"lng":-122.14281695347299,"labeledLatLngs":[{"label":"display","lat":37.45863883712677,"lng":-122.14281695347299}],"distance":129,"postalCode":"94303","cc":"US","city":"East Palo Alto","state":"CA","country":"Estados Unidos","formattedAddress":["1900 University Ave Ste 101","East Palo Alto, CA 94303","Estados Unidos"]},"categories":[{"id":"4bf58dd8d48988d177941735","name":"Consultorio médico","pluralName":"Consultorios médicos","shortName":"Consultorio médico","icon":{"prefix":"https:\/\/ss3.4sqi.net\/img\/categories_v2\/building\/medical_doctorsoffice_","suffix":".png"},"primary":true}],"referralId":"v-1574011531","hasPerk":false},{"id":"4ae0c9bef964a5207c8221e3","name":"Burr Pilger & Mayer","location":{"address":"2000 University Ave Ste 201","crossStreet":"2 Palo Alto Square","lat":37.45980552823735,"lng":-122.1431502066204,"labeledLatLngs":[{"label":"display","lat":37.45980552823735,"lng":-122.1431502066204}],"distance":23,"postalCode":"94303","cc":"US","city":"East Palo Alto","state":"CA","country":"Estados Unidos","formattedAddress":["2000 University Ave Ste 201 (2 Palo Alto Square)","East Palo Alto, CA 94303","Estados Unidos"]},"categories":[],"referralId":"v-1574011531","hasPerk":false},{"id":"537e1498498e01f676120001","name":"Alston & Bird","location":{"address":"1950 University Ave","lat":37.45916748046875,"lng":-122.14096069335938,"labeledLatLngs":[{"label":"display","lat":37.45916748046875,"lng":-122.14096069335938}],"distance":184,"postalCode":"94303","cc":"US","city":"East Palo Alto","state":"CA","country":"Estados Unidos","formattedAddress":["1950 University Ave","East Palo Alto, CA 94303","Estados Unidos"]},"categories":[{"id":"4bf58dd8d48988d127941735","name":"Sala de conferencias","pluralName":"Salas de conferencias","shortName":"Sala de conferencias","icon":{"prefix":"https:\/\/ss3.4sqi.net\/img\/categories_v2\/building\/office_conferenceroom_","suffix":".png"},"primary":true}],"referralId":"v-1574011531","hasPerk":false},{"id":"4ca9f851a643b71364b6e9a6","name":"Huntsman Gay Global Capital","location":{"address":"1950 University Ave","lat":37.45921961997018,"lng":-122.1410495268678,"labeledLatLngs":[{"label":"display","lat":37.45921961997018,"lng":-122.1410495268678}],"distance":174,"postalCode":"94303","cc":"US","city":"East Palo Alto","state":"CA","country":"Estados Unidos","formattedAddress":["1950 University Ave","East Palo Alto, CA 94303","Estados Unidos"]},"categories":[{"id":"4bf58dd8d48988d124941735","name":"Oficina","pluralName":"Oficinas","shortName":"Oficina","icon":{"prefix":"https:\/\/ss3.4sqi.net\/img\/categories_v2\/building\/default_","suffix":".png"},"primary":true}],"referralId":"v-1574011531","hasPerk":false},{"id":"533de602498efaef91c20cd0","name":"NTT Group","location":{"address":"1950 University Ave","lat":37.459197088093966,"lng":-122.14127599124033,"labeledLatLngs":[{"label":"display","lat":37.459197088093966,"lng":-122.14127599124033}],"distance":157,"postalCode":"94303","cc":"US","city":"East Palo Alto","state":"CA","country":"Estados Unidos","formattedAddress":["1950 University Ave","East Palo Alto, CA 94303","Estados Unidos"]},"categories":[{"id":"4bf58dd8d48988d124941735","name":"Oficina","pluralName":"Oficinas","shortName":"Oficina","icon":{"prefix":"https:\/\/ss3.4sqi.net\/img\/categories_v2\/building\/default_","suffix":".png"},"primary":true}],"referralId":"v-1574011531","hasPerk":false},{"id":"52f54c48498e33f86b6c6b50","name":"AWS","location":{"address":"1900 University Ave","lat":37.45899065628271,"lng":-122.14323840376531,"labeledLatLngs":[{"label":"display","lat":37.45899065628271,"lng":-122.14323840376531}],"distance":95,"postalCode":"94303","cc":"US","city":"East Palo Alto","state":"CA","country":"Estados Unidos","formattedAddress":["1900 University Ave","East Palo Alto, CA 94303","Estados Unidos"]},"categories":[{"id":"4bf58dd8d48988d124941735","name":"Oficina","pluralName":"Oficinas","shortName":"Oficina","icon":{"prefix":"https:\/\/ss3.4sqi.net\/img\/categories_v2\/building\/default_","suffix":".png"},"primary":true}],"referralId":"v-1574011531","hasPerk":false},{"id":"5502b1a1498eed33576da2a6","name":"Dr. Schendel Plastic Surgery","location":{"address":"1900 University Avenue Suite 101","lat":37.459102243213906,"lng":-122.14292228221893,"labeledLatLngs":[{"label":"display","lat":37.459102243213906,"lng":-122.14292228221893}],"distance":78,"postalCode":"94303","cc":"US","city":"Palo Alto","state":"CA","country":"Estados Unidos","formattedAddress":["1900 University Avenue Suite 101","Palo Alto, CA 94303","Estados Unidos"]},"categories":[{"id":"4bf58dd8d48988d177941735","name":"Consultorio médico","pluralName":"Consultorios médicos","shortName":"Consultorio médico","icon":{"prefix":"https:\/\/ss3.4sqi.net\/img\/categories_v2\/building\/medical_doctorsoffice_","suffix":".png"},"primary":true}],"venuePage":{"id":"525267253"},"referralId":"v-1574011531","hasPerk":false},{"id":"4c07e994bbc676b035b245d5","name":"Piper Jaffray","location":{"address":"1950 University Ave","lat":37.459343,"lng":-122.141746,"labeledLatLngs":[{"label":"display","lat":37.459343,"lng":-122.141746}],"distance":113,"postalCode":"94303","cc":"US","city":"East Palo Alto","state":"CA","country":"Estados Unidos","formattedAddress":["1950 University Ave","East Palo Alto, CA 94303","Estados Unidos"]},"categories":[{"id":"4bf58dd8d48988d124941735","name":"Oficina","pluralName":"Oficinas","shortName":"Oficina","icon":{"prefix":"https:\/\/ss3.4sqi.net\/img\/categories_v2\/building\/default_","suffix":".png"},"primary":true}],"referralId":"v-1574011531","hasPerk":false},{"id":"4bb6df2b46d4a59398ecc6c0","name":"Peony","location":{"lat":37.4607,"lng":-122.141392,"labeledLatLngs":[{"label":"display","lat":37.4607,"lng":-122.141392}],"distance":165,"cc":"US","state":"California","country":"Estados Unidos","formattedAddress":["California","Estados Unidos"]},"categories":[{"id":"4bf58dd8d48988d111941735","name":"Restaurante japonés","pluralName":"Restaurantes japoneses","shortName":"Japonesa","icon":{"prefix":"https:\/\/ss3.4sqi.net\/img\/categories_v2\/food\/japanese_","suffix":".png"},"primary":true}],"referralId":"v-1574011531","hasPerk":false},{"id":"5269c4e011d2f568816c53d6","name":"HGGC","location":{"address":"1950 University Ave","lat":37.4590537142026,"lng":-122.14159205943162,"labeledLatLngs":[{"label":"display","lat":37.4590537142026,"lng":-122.14159205943162}],"distance":141,"postalCode":"94303","cc":"US","city":"East Palo Alto","state":"CA","country":"Estados Unidos","formattedAddress":["1950 University Ave","East Palo Alto, CA 94303","Estados Unidos"]},"categories":[{"id":"4bf58dd8d48988d124941735","name":"Oficina","pluralName":"Oficinas","shortName":"Oficina","icon":{"prefix":"https:\/\/ss3.4sqi.net\/img\/categories_v2\/building\/default_","suffix":".png"},"primary":true}],"referralId":"v-1574011531","hasPerk":false},{"id":"5770fbb9498e086d5cdefbc5","name":"Stephen Schendel, MD","location":{"address":"1900 University Ave #101","lat":37.45753733506873,"lng":-122.14144706726074,"labeledLatLngs":[{"label":"display","lat":37.45753733506873,"lng":-122.14144706726074}],"distance":282,"postalCode":"94303","cc":"US","city":"East Palo Alto","state":"CA","country":"Estados Unidos","formattedAddress":["1900 University Ave #101","East Palo Alto, CA 94303","Estados Unidos"]},"categories":[{"id":"4bf58dd8d48988d196941735","name":"Hospital","pluralName":"Hospitales","shortName":"Hospital","icon":{"prefix":"https:\/\/ss3.4sqi.net\/img\/categories_v2\/building\/medical_","suffix":".png"},"primary":true}],"referralId":"v-1574011531","hasPerk":false},{"id":"4c8b8e75770fb60cdfd2dcc3","name":"Four Seasons Spa","location":{"address":"Four Seasons Hotel Silicon Valley","crossStreet":"2050 University Ave","lat":37.46022162659859,"lng":-122.14188165359509,"labeledLatLngs":[{"label":"display","lat":37.46022162659859,"lng":-122.14188165359509}],"distance":100,"postalCode":"94303","cc":"US","city":"East Palo Alto","state":"CA","country":"Estados Unidos","formattedAddress":["Four Seasons Hotel Silicon Valley (2050 University Ave)","East Palo Alto, CA 94303","Estados Unidos"]},"categories":[{"id":"4bf58dd8d48988d1ed941735","name":"Spa","pluralName":"Spas","shortName":"Spa","icon":{"prefix":"https:\/\/ss3.4sqi.net\/img\/categories_v2\/shops\/spa_","suffix":".png"},"primary":true}],"hierarchy":[],"referralId":"v-1574011531","hasPerk":false},{"id":"4c09bedeffb8c9b6248c6a61","name":"Super L Pizzeria","location":{"lat":37.457381,"lng":-122.142044,"labeledLatLngs":[{"label":"display","lat":37.457381,"lng":-122.142044}],"distance":279,"cc":"US","state":"California","country":"Estados Unidos","formattedAddress":["California","Estados Unidos"]},"categories":[{"id":"4bf58dd8d48988d1ca941735","name":"Pizzería","pluralName":"Pizzerías","shortName":"Pizza","icon":{"prefix":"https:\/\/ss3.4sqi.net\/img\/categories_v2\/food\/pizza_","suffix":".png"},"primary":true}],"referralId":"v-1574011531","hasPerk":false},{"id":"4ed49ce030f803fae752068b","name":"Eastside Teacher's Lounge","location":{"lat":37.46284897825863,"lng":-122.14179722600718,"labeledLatLngs":[{"label":"display","lat":37.46284897825863,"lng":-122.14179722600718}],"distance":352,"postalCode":"94303","cc":"US","city":"Palo Alto","state":"CA","country":"Estados Unidos","formattedAddress":["Palo Alto, CA 94303","Estados Unidos"]},"categories":[{"id":"4bf58dd8d48988d174941735","name":"Espacio de trabajo compartido","pluralName":"Oficinas compartidas","shortName":"Espacio de trabajo compartido","icon":{"prefix":"https:\/\/ss3.4sqi.net\/img\/categories_v2\/building\/office_coworkingspace_","suffix":".png"},"primary":true}],"referralId":"v-1574011531","hasPerk":false},{"id":"5388bd66498ef93b52f26306","name":"NTT R&D Center (I3)","location":{"lat":37.459385875874624,"lng":-122.14175224952156,"labeledLatLngs":[{"label":"display","lat":37.459385875874624,"lng":-122.14175224952156}],"distance":110,"cc":"US","city":"East Palo Alto","state":"CA","country":"Estados Unidos","formattedAddress":["East Palo Alto, CA","Estados Unidos"]},"categories":[{"id":"4bf58dd8d48988d125941735","name":"Startup de tecnología","pluralName":"Startups de tecnología","shortName":"Startup de tecnología","icon":{"prefix":"https:\/\/ss3.4sqi.net\/img\/categories_v2\/shops\/technology_","suffix":".png"},"primary":true}],"referralId":"v-1574011531","hasPerk":false},{"id":"4af0b6a7f964a52078de21e3","name":"Greenberg Traurig","location":{"address":"1900 University Ave","lat":37.458886012875084,"lng":-122.14224924118665,"labeledLatLngs":[{"label":"display","lat":37.458886012875084,"lng":-122.14224924118665}],"distance":116,"postalCode":"94303","cc":"US","city":"East Palo Alto","state":"CA","country":"Estados Unidos","formattedAddress":["1900 University Ave","East Palo Alto, CA 94303","Estados Unidos"]},"categories":[{"id":"4bf58dd8d48988d124941735","name":"Oficina","pluralName":"Oficinas","shortName":"Oficina","icon":{"prefix":"https:\/\/ss3.4sqi.net\/img\/categories_v2\/building\/default_","suffix":".png"},"primary":true}],"referralId":"v-1574011531","hasPerk":false}],"confident":false}}