[{"category_code":"web","founded_year":2011,"name":"Mokitown","coords":{"type":"Point","coordinates":[-95.712891,37.09024]}},{"category_code":"mobile","founded_year":2010,"name":"GENWI","coords":{"type":"Point","coordinates":[-111.9035,33.8171]}},{"category_code":"web","founded_year":2013,"name":"Fixya","coords":{"type":"Point","coordinates":[-122.323895,37.566879]}},{"category_code":"games_video","founded_year":2011,"name":"Social Gaming Network","coords":{"type":"Point","coordinates":[-122.161523,37.446823]}},{"category_code":"mobile","founded_year":2012,"name":"Skydeck","coords":{"type":"Point","coordinates":[-122.3254705,37.5645375]}},{"category_code":"mobile","founded_year":2012,"name":"Jumbuck Entertainment","coords":{"type":"Point","coordinates":[144.962991,-37.817748]}},{"category_code":"web","founded_year":2010,"name":"Pixsta","coords":{"type":"Point","coordinates":[-0.208979,51.51819]}},{"category_code":"games_video","founded_year":2011,"name":"Fuzz","coords":{"type":"Point","coordinates":[-122.387799,37.760524]}},{"category_code":"web","founded_year":2010,"name":"CollegeConvo","coords":{"type":"Point","coordinates":[-74.294395,40.650291]}},{"category_code":"software","founded_year":2012,"name":"Carfeine","coords":{"type":"Point","coordinates":[-77.026676,38.989124]}},{"category_code":"web","founded_year":2011,"name":"Ziippi","coords":{"type":"Point","coordinates":[-122.1612868,37.4440981]}},{"category_code":"games_video","founded_year":2010,"name":"Titan Gaming","coords":{"type":"Point","coordinates":[-113.515769,53.544711]}},{"category_code":"software","founded_year":2010,"name":"JumpForward","coords":{"type":"Point","coordinates":[-87.623923,41.857204]}},{"category_code":"software","founded_year":2010,"name":"OTOY","coords":{"type":"Point","coordinates":[-118.424058,34.15761]}},{"category_code":"advertising","founded_year":2013,"name":"SEOGroup","coords":{"type":"Point","coordinates":[-87.624701,41.886264]}},{"category_code":"mobile","founded_year":2010,"name":"vufind","coords":{"type":"Point","coordinates":[-122.145153,37.424614]}},{"category_code":"games_video","founded_year":2011,"name":"Kidos","coords":{"type":"Point","coordinates":[-73.956599,40.768058]}},{"category_code":"games_video","founded_year":2011,"name":"Kidos","coords":{"type":"Point","coordinates":[-73.956599,40.768058]}},{"category_code":"games_video","founded_year":2010,"name":"Equedia","coords":{"type":"Point","coordinates":[-123.1169693,49.2871668]}},{"category_code":"software","founded_year":2012,"name":"Navara","coords":{"type":"Point","coordinates":[5.038078,52.126616]}},{"category_code":"advertising","founded_year":2010,"name":"Webmoblink","coords":{"type":"Point","coordinates":[-80.424167,25.655899]}},{"category_code":"web","founded_year":2010,"name":"Yipit","coords":{"type":"Point","coordinates":[-73.987764,40.744618]}},{"category_code":"web","founded_year":2010,"name":"fruux","coords":{"type":"Point","coordinates":[7.6267552,51.9630088]}},{"category_code":"web","founded_year":2013,"name":"Clowdy","coords":{"type":"Point","coordinates":[-2.2439492,53.4837067]}},{"category_code":"software","founded_year":2011,"name":"Unison Technologies","coords":{"type":"Point","coordinates":[-73.9799007,40.7645772]}},{"category_code":"games_video","founded_year":2010,"name":"Tengaged","coords":{"type":"Point","coordinates":[2.1634249,41.4241228]}},{"category_code":"software","founded_year":2010,"name":"Reachoo","coords":{"type":"Point","coordinates":[-80.135487,26.2480738]}},{"category_code":"games_video","founded_year":2010,"name":"Indee","coords":{"type":"Point","coordinates":[-122.4052761,37.8053241]}},{"category_code":"web","founded_year":2010,"name":"eCampusCash","coords":{"type":"Point","coordinates":[-74.294395,40.650291]}},{"category_code":"software","founded_year":2011,"name":"VisualOn","coords":{"type":"Point","coordinates":[-121.955879,37.270518]}},{"category_code":"software","founded_year":2010,"name":"kinDragon","coords":{"type":"Point","coordinates":[-82.5294065,27.4081935]}},{"category_code":"games_video","founded_year":2010,"name":"BASH Gaming","coords":{"type":"Point","coordinates":[-122.0780632,37.5561712]}},{"category_code":"software","founded_year":2010,"name":"AppNeta","coords":{"type":"Point","coordinates":[-71.24756,42.318138]}},{"category_code":"advertising","founded_year":2010,"name":"MyLikes","coords":{"type":"Point","coordinates":[-122.408914,37.777995]}},{"category_code":"games_video","founded_year":2011,"name":"Hayen Company","coords":{"type":"Point","coordinates":[-81.004871,34.019114]}},{"category_code":"games_video","founded_year":2010,"name":"Flixxy","coords":{"type":"Point","coordinates":[-82.800333,27.972364]}},{"category_code":"games_video","founded_year":2010,"name":"ekidnaworld","coords":{"type":"Point","coordinates":[153.033686,-27.4574861]}}]